<?xml version="1.0"?>
<FSData version="9.0">
	<!--SceneryObject name: Airport_Building_Lamp-->
	<SceneryObject groupIndex="212" lat="27.76323234521139" lon="-82.63174849665668" alt="0.00000000000000" pitch="0.001544" bank="-0.001544" heading="47.082861" imageComplexity="VERY_SPARSE" altitudeIsAgl="TRUE" snapToGround="TRUE" snapToNormal="FALSE">
		<LibraryObject name="{C60D9806-8C87-4920-B0CC-FA7C849803FC}" scale="1.000000"/>
	</SceneryObject>
	<!--SceneryObject name: Airport_Building_Lamp-->
	<SceneryObject displayName="Airport_Building_Lamp (copy 1)" groupIndex="213" lat="27.76332885964328" lon="-82.63154288267495" alt="0.00000000000000" pitch="0.001544" bank="-0.001544" heading="47.082861" imageComplexity="VERY_SPARSE" altitudeIsAgl="TRUE" snapToGround="TRUE" snapToNormal="FALSE">
		<LibraryObject name="{C60D9806-8C87-4920-B0CC-FA7C849803FC}" scale="1.000000"/>
	</SceneryObject>
	<!--SceneryObject name: Airport_Building_Lamp-->
	<SceneryObject displayName="Airport_Building_Lamp (copy)" groupIndex="214" lat="27.76341225964433" lon="-82.63136434517030" alt="0.00000000000000" pitch="0.001544" bank="-0.001544" heading="47.082861" imageComplexity="VERY_SPARSE" altitudeIsAgl="TRUE" snapToGround="TRUE" snapToNormal="FALSE">
		<LibraryObject name="{C60D9806-8C87-4920-B0CC-FA7C849803FC}" scale="1.000000"/>
	</SceneryObject>
	<!--SceneryObject name: Airport_PlasticBarrier_Type1_20_pack-->
	<SceneryObject groupIndex="259" lat="27.76307186198141" lon="-82.63358968485265" alt="0.00000000000000" pitch="0.001373" bank="-0.001373" heading="-118.610743" imageComplexity="VERY_SPARSE" altitudeIsAgl="TRUE" snapToGround="TRUE" snapToNormal="FALSE">
		<LibraryObject name="{FD8985B9-B5EA-4F75-97E7-4DF524BDD326}" scale="1.240000"/>
	</SceneryObject>
	<!--SceneryObject name: Automatic_Fence-->
	<SceneryObject groupIndex="209" lat="27.76495310627064" lon="-82.63145659319645" alt="0.00000000000000" pitch="0.000000" bank="0.000000" heading="-0.999994" imageComplexity="VERY_SPARSE" altitudeIsAgl="TRUE" snapToGround="TRUE" snapToNormal="FALSE">
		<LibraryObject name="{8BEE7FF0-6CE8-4BD5-B053-20263F075E20}" scale="0.300000"/>
	</SceneryObject>
	<!--SceneryObject name: Baggage_Cart01_Yellow-->
	<SceneryObject groupIndex="97" lat="27.76397692493709" lon="-82.63295138801375" alt="0.00000000000000" pitch="0.000984" bank="-0.000984" heading="-79.118145" imageComplexity="VERY_SPARSE" altitudeIsAgl="TRUE" snapToGround="TRUE" snapToNormal="FALSE">
		<LibraryObject name="{64256D52-AFCA-4C6E-A50A-75B99D071F82}" scale="1.509999"/>
	</SceneryObject>
	<!--SceneryObject name: Boat01-->
	<SceneryObject groupIndex="73" lat="27.76054719660119" lon="-82.62672395602605" alt="0.00000000000000" pitch="0.001120" bank="-0.001120" heading="61.811177" imageComplexity="VERY_SPARSE" altitudeIsAgl="TRUE" snapToGround="TRUE" snapToNormal="FALSE">
		<LibraryObject name="{B095E6DA-4591-4EBE-A34F-D86BE0C311EA}" scale="1.000000"/>
	</SceneryObject>
	<!--SceneryObject name: Boat01-->
	<SceneryObject groupIndex="202" lat="27.76908403127907" lon="-82.62909363508899" alt="0.00000000000000" pitch="0.001045" bank="-0.001045" heading="0.951022" imageComplexity="VERY_SPARSE" altitudeIsAgl="TRUE" snapToGround="TRUE" snapToNormal="FALSE">
		<LibraryObject name="{B095E6DA-4591-4EBE-A34F-D86BE0C311EA}" scale="1.000000"/>
	</SceneryObject>
	<!--SceneryObject name: Boat01-->
	<SceneryObject groupIndex="201" lat="27.76929002827637" lon="-82.62836785405740" alt="0.00000000000000" pitch="0.000000" bank="0.000000" heading="-179.999995" imageComplexity="VERY_SPARSE" altitudeIsAgl="TRUE" snapToGround="TRUE" snapToNormal="FALSE">
		<LibraryObject name="{B095E6DA-4591-4EBE-A34F-D86BE0C311EA}" scale="1.000000"/>
	</SceneryObject>
	<!--SceneryObject name: BrightonPalacePier-->
	<SceneryObject groupIndex="26" lat="27.77359961155670" lon="-82.62400922759774" alt="0.00000000000000" pitch="0.001544" bank="-0.001544" heading="-1.100309" imageComplexity="VERY_SPARSE" altitudeIsAgl="TRUE" snapToGround="TRUE" snapToNormal="FALSE">
		<LibraryObject name="{EEB99E2B-51DC-466E-B6A6-DBECCF855E58}" scale="0.750000"/>
	</SceneryObject>
	<!--SceneryObject name: BushVarious01-->
	<SceneryObject groupIndex="230" lat="27.76858082334387" lon="-82.62409308527930" alt="0.00000000000000" pitch="0.000000" bank="0.000000" heading="-179.999995" imageComplexity="VERY_SPARSE" altitudeIsAgl="TRUE" snapToGround="TRUE" snapToNormal="FALSE">
		<LibraryObject name="{A770F3E1-952E-49BA-9C26-E39F076F3DEF}" scale="1.000000"/>
	</SceneryObject>
	<!--SceneryObject name: BushVarious02_Green-->
	<SceneryObject groupIndex="229" lat="27.76849342142725" lon="-82.62397324449149" alt="0.00000000000000" pitch="0.000000" bank="0.000000" heading="-179.999995" imageComplexity="VERY_SPARSE" altitudeIsAgl="TRUE" snapToGround="TRUE" snapToNormal="FALSE">
		<LibraryObject name="{95F296EE-0F5D-450E-8449-A4EF99267EFE}" scale="1.000000"/>
	</SceneryObject>
	<!--SceneryObject name: BushVarious02_Green-->
	<SceneryObject groupIndex="228" lat="27.76855263321920" lon="-82.62406467900718" alt="0.00000000000000" pitch="0.000000" bank="0.000000" heading="-179.999995" imageComplexity="VERY_SPARSE" altitudeIsAgl="TRUE" snapToGround="TRUE" snapToNormal="FALSE">
		<LibraryObject name="{95F296EE-0F5D-450E-8449-A4EF99267EFE}" scale="1.000000"/>
	</SceneryObject>
	<!--SceneryObject name: BushVarious02_Green-->
	<SceneryObject groupIndex="226" lat="27.76860813028122" lon="-82.62408130913900" alt="0.00000000000000" pitch="0.000000" bank="0.000000" heading="-179.999995" imageComplexity="VERY_SPARSE" altitudeIsAgl="TRUE" snapToGround="TRUE" snapToNormal="FALSE">
		<LibraryObject name="{95F296EE-0F5D-450E-8449-A4EF99267EFE}" scale="1.000000"/>
	</SceneryObject>
	<!--SceneryObject name: Bush_01-->
	<SceneryObject groupIndex="19" lat="27.76471522850688" lon="-82.63319272266706" alt="0.00000000000000" pitch="0.000000" bank="0.000000" heading="-179.999995" imageComplexity="VERY_SPARSE" altitudeIsAgl="TRUE" snapToGround="TRUE" snapToNormal="FALSE">
		<LibraryObject name="{7BFDAC86-6233-41F3-AA29-6D2C756E8A41}" scale="1.000000"/>
	</SceneryObject>
	<!--SceneryObject name: Bush_01-->
	<SceneryObject groupIndex="17" lat="27.76473674597251" lon="-82.63319191611308" alt="0.00000000000000" pitch="0.000000" bank="0.000000" heading="-179.999995" imageComplexity="VERY_SPARSE" altitudeIsAgl="TRUE" snapToGround="TRUE" snapToNormal="FALSE">
		<LibraryObject name="{7BFDAC86-6233-41F3-AA29-6D2C756E8A41}" scale="1.000000"/>
	</SceneryObject>
	<!--SceneryObject name: Bush_01-->
	<SceneryObject groupIndex="15" lat="27.76476172294672" lon="-82.63319349887750" alt="0.00000000000000" pitch="0.000000" bank="0.000000" heading="-179.999995" imageComplexity="VERY_SPARSE" altitudeIsAgl="TRUE" snapToGround="TRUE" snapToNormal="FALSE">
		<LibraryObject name="{7BFDAC86-6233-41F3-AA29-6D2C756E8A41}" scale="1.000000"/>
	</SceneryObject>
	<!--SceneryObject name: Bush_01-->
	<SceneryObject groupIndex="13" lat="27.76478560015603" lon="-82.63319476895083" alt="0.00000000000000" pitch="0.000000" bank="0.000000" heading="-179.999995" imageComplexity="VERY_SPARSE" altitudeIsAgl="TRUE" snapToGround="TRUE" snapToNormal="FALSE">
		<LibraryObject name="{7BFDAC86-6233-41F3-AA29-6D2C756E8A41}" scale="1.000000"/>
	</SceneryObject>
	<!--SceneryObject name: Bush_01-->
	<SceneryObject groupIndex="12" lat="27.76480797733837" lon="-82.63319662219743" alt="0.00000000000000" pitch="0.000000" bank="0.000000" heading="-179.999995" imageComplexity="VERY_SPARSE" altitudeIsAgl="TRUE" snapToGround="TRUE" snapToNormal="FALSE">
		<LibraryObject name="{7BFDAC86-6233-41F3-AA29-6D2C756E8A41}" scale="1.000000"/>
	</SceneryObject>
	<!--SceneryObject name: Car01_White-->
	<SceneryObject groupIndex="180" lat="27.76292679886488" lon="-82.62999780366161" alt="0.00000000000000" pitch="0.000683" bank="-0.000683" heading="95.919277" imageComplexity="VERY_SPARSE" altitudeIsAgl="TRUE" snapToGround="TRUE" snapToNormal="FALSE">
		<LibraryObject name="{4F460367-2D3B-46F2-8225-CBEC56300F3C}" scale="1.000000"/>
	</SceneryObject>
	<!--SceneryObject name: Car02_Gray-->
	<SceneryObject groupIndex="96" lat="27.76295047556145" lon="-82.63189659039622" alt="0.00000000000000" pitch="0.000000" bank="0.000000" heading="-179.999995" imageComplexity="VERY_SPARSE" altitudeIsAgl="TRUE" snapToGround="TRUE" snapToNormal="FALSE">
		<LibraryObject name="{039F4410-69CA-4498-940D-49FDA5E61B4E}" scale="1.000000"/>
	</SceneryObject>
	<!--SceneryObject name: Car02_Red-->
	<SceneryObject groupIndex="183" lat="27.76289213944802" lon="-82.62999958775612" alt="0.00000000000000" pitch="-3.234737" bank="0.005088" heading="93.457007" imageComplexity="VERY_SPARSE" altitudeIsAgl="TRUE" snapToGround="TRUE" snapToNormal="FALSE">
		<LibraryObject name="{E0EF3F35-A4E1-4C51-9E50-1993537B0609}" scale="1.388554"/>
	</SceneryObject>
	<!--SceneryObject name: CarFacillity01_White-->
	<SceneryObject groupIndex="188" lat="27.76285204924184" lon="-82.63090522455641" alt="0.00000000000000" pitch="0.000956" bank="-0.000956" heading="-99.005976" imageComplexity="VERY_SPARSE" altitudeIsAgl="TRUE" snapToGround="TRUE" snapToNormal="FALSE">
		<LibraryObject name="{D56409DC-61C4-45F1-84C9-29FA5366C68A}" scale="1.000000"/>
	</SceneryObject>
	<!--SceneryObject name: CarFacillity01_White-->
	<SceneryObject groupIndex="186" lat="27.76293736030453" lon="-82.63087255712819" alt="0.00000000000000" pitch="0.000000" bank="0.000000" heading="-179.999995" imageComplexity="VERY_SPARSE" altitudeIsAgl="TRUE" snapToGround="TRUE" snapToNormal="FALSE">
		<LibraryObject name="{D56409DC-61C4-45F1-84C9-29FA5366C68A}" scale="1.000000"/>
	</SceneryObject>
	<!--SceneryObject name: CarUtility01_White-->
	<SceneryObject groupIndex="184" lat="27.76274720115470" lon="-82.63001522626757" alt="0.00000000000000" pitch="0.000000" bank="0.000000" heading="-179.999995" imageComplexity="VERY_SPARSE" altitudeIsAgl="TRUE" snapToGround="TRUE" snapToNormal="FALSE">
		<LibraryObject name="{939D8D5A-8F2E-4985-92A8-F8BED248DAA9}" scale="1.000000"/>
	</SceneryObject>
	<!--SceneryObject name: CargoShip01-->
	<SceneryObject groupIndex="177" lat="27.76183756750341" lon="-82.63189011636457" alt="0.00000000000000" pitch="0.001544" bank="-0.001544" heading="90.251012" imageComplexity="VERY_SPARSE" altitudeIsAgl="TRUE" snapToGround="TRUE" snapToNormal="FALSE">
		<LibraryObject name="{CF2B8E0D-0F88-4F07-968E-EC95D2108D4D}" scale="1.000000"/>
	</SceneryObject>
	<!--SceneryObject name: Dock_Middle-->
	<SceneryObject groupIndex="192" lat="27.76909809914090" lon="-82.62913895086572" alt="0.00000000000000" pitch="0.000000" bank="0.000000" heading="-179.999995" imageComplexity="VERY_SPARSE" altitudeIsAgl="TRUE" snapToGround="TRUE" snapToNormal="FALSE">
		<LibraryObject name="{AB2857D8-692A-4D10-8160-8E5C49C6DBA2}" scale="1.000000"/>
	</SceneryObject>
	<!--SceneryObject name: Dock_Middle-->
	<SceneryObject groupIndex="190" lat="27.76915560945319" lon="-82.62841254888404" alt="0.00000000000000" pitch="0.000000" bank="0.000000" heading="-179.999995" imageComplexity="VERY_SPARSE" altitudeIsAgl="TRUE" snapToGround="TRUE" snapToNormal="FALSE">
		<LibraryObject name="{AB2857D8-692A-4D10-8160-8E5C49C6DBA2}" scale="1.000000"/>
	</SceneryObject>
	<!--SceneryObject name: Dock_Middle-->
	<SceneryObject groupIndex="191" lat="27.76923821464992" lon="-82.62913894955656" alt="0.00000000000000" pitch="0.000000" bank="0.000000" heading="-179.999995" imageComplexity="VERY_SPARSE" altitudeIsAgl="TRUE" snapToGround="TRUE" snapToNormal="FALSE">
		<LibraryObject name="{AB2857D8-692A-4D10-8160-8E5C49C6DBA2}" scale="1.000000"/>
	</SceneryObject>
	<!--SceneryObject name: Dock_Middle-->
	<SceneryObject groupIndex="196" lat="27.76924667345616" lon="-82.63149834003231" alt="0.00000000000000" pitch="0.000000" bank="0.000000" heading="-179.999995" imageComplexity="VERY_SPARSE" altitudeIsAgl="TRUE" snapToGround="TRUE" snapToNormal="FALSE">
		<LibraryObject name="{AB2857D8-692A-4D10-8160-8E5C49C6DBA2}" scale="1.000000"/>
	</SceneryObject>
	<!--SceneryObject name: Dock_Middle-->
	<SceneryObject groupIndex="194" lat="27.76925940612882" lon="-82.63034396935241" alt="0.00000000000000" pitch="0.000000" bank="0.000000" heading="-179.999995" imageComplexity="VERY_SPARSE" altitudeIsAgl="TRUE" snapToGround="TRUE" snapToNormal="FALSE">
		<LibraryObject name="{AB2857D8-692A-4D10-8160-8E5C49C6DBA2}" scale="1.000000"/>
	</SceneryObject>
	<!--SceneryObject name: Dock_Middle-->
	<SceneryObject groupIndex="193" lat="27.76926211155172" lon="-82.62977820651859" alt="0.00000000000000" pitch="0.000000" bank="0.000000" heading="-179.999995" imageComplexity="VERY_SPARSE" altitudeIsAgl="TRUE" snapToGround="TRUE" snapToNormal="FALSE">
		<LibraryObject name="{AB2857D8-692A-4D10-8160-8E5C49C6DBA2}" scale="1.000000"/>
	</SceneryObject>
	<!--SceneryObject name: Dock_Middle-->
	<SceneryObject groupIndex="195" lat="27.76926216449361" lon="-82.63101991647213" alt="0.00000000000000" pitch="0.000000" bank="0.000000" heading="-179.999995" imageComplexity="VERY_SPARSE" altitudeIsAgl="TRUE" snapToGround="TRUE" snapToNormal="FALSE">
		<LibraryObject name="{AB2857D8-692A-4D10-8160-8E5C49C6DBA2}" scale="1.000000"/>
	</SceneryObject>
	<!--SceneryObject name: Dock_Middle-->
	<SceneryObject groupIndex="189" lat="27.76929431051174" lon="-82.62841719078668" alt="0.00000000000000" pitch="0.000000" bank="0.000000" heading="-179.999995" imageComplexity="VERY_SPARSE" altitudeIsAgl="TRUE" snapToGround="TRUE" snapToNormal="FALSE">
		<LibraryObject name="{AB2857D8-692A-4D10-8160-8E5C49C6DBA2}" scale="1.000000"/>
	</SceneryObject>
	<!--SceneryObject name: Dock_Middle-->
	<SceneryObject groupIndex="181" lat="27.77087253925303" lon="-82.62953588041862" alt="0.00000000000000" pitch="0.000000" bank="0.000000" heading="-179.999995" imageComplexity="VERY_SPARSE" altitudeIsAgl="TRUE" snapToGround="TRUE" snapToNormal="FALSE">
		<LibraryObject name="{AB2857D8-692A-4D10-8160-8E5C49C6DBA2}" scale="1.000000"/>
	</SceneryObject>
	<!--SceneryObject name: Dock_Middle-->
	<SceneryObject groupIndex="185" lat="27.77101388745424" lon="-82.62953459179730" alt="0.00000000000000" pitch="0.000000" bank="0.000000" heading="-179.999995" imageComplexity="VERY_SPARSE" altitudeIsAgl="TRUE" snapToGround="TRUE" snapToNormal="FALSE">
		<LibraryObject name="{AB2857D8-692A-4D10-8160-8E5C49C6DBA2}" scale="1.000000"/>
	</SceneryObject>
	<!--SceneryObject name: Dock_Middle-->
	<SceneryObject groupIndex="187" lat="27.77115392654043" lon="-82.62953349513948" alt="0.00000000000000" pitch="0.000000" bank="0.000000" heading="-179.999995" imageComplexity="VERY_SPARSE" altitudeIsAgl="TRUE" snapToGround="TRUE" snapToNormal="FALSE">
		<LibraryObject name="{AB2857D8-692A-4D10-8160-8E5C49C6DBA2}" scale="1.000000"/>
	</SceneryObject>
	<!--SceneryObject name: Dock__High-->
	<SceneryObject groupIndex="170" lat="27.77232847716038" lon="-82.63156587611749" alt="0.00000000000000" pitch="0.001544" bank="-0.001544" heading="87.285023" imageComplexity="VERY_SPARSE" altitudeIsAgl="TRUE" snapToGround="TRUE" snapToNormal="FALSE">
		<LibraryObject name="{93DAD4E2-2877-445C-BE58-7812B07B086F}" scale="1.181509"/>
	</SceneryObject>
	<!--SceneryObject name: Dock__High-->
	<SceneryObject groupIndex="139" lat="27.77318214371944" lon="-82.62932040474300" alt="0.00000000000000" pitch="0.000000" bank="0.000000" heading="-179.999995" imageComplexity="VERY_SPARSE" altitudeIsAgl="TRUE" snapToGround="TRUE" snapToNormal="FALSE">
		<LibraryObject name="{93DAD4E2-2877-445C-BE58-7812B07B086F}" scale="1.000000"/>
	</SceneryObject>
	<!--SceneryObject name: Fence_Grilling02_High-->
	<SceneryObject displayName="Fence_Grilling02_High (copy 16)" groupIndex="148" lat="27.76246963894465" lon="-82.63236809653047" alt="0.00000000000000" pitch="0.003039" bank="-0.002131" heading="-89.774449" imageComplexity="VERY_SPARSE" altitudeIsAgl="TRUE" snapToGround="TRUE" snapToNormal="FALSE">
		<LibraryObject name="{61B0F32A-04BA-478B-80EF-DEEA377A6C81}" scale="0.300000"/>
	</SceneryObject>
	<!--SceneryObject name: Fence_Grilling02_High-->
	<SceneryObject displayName="Fence_Grilling02_High (copy 15)" groupIndex="149" lat="27.76264574019747" lon="-82.63290999962730" alt="0.00000000000000" pitch="0.003039" bank="-0.002131" heading="-89.774449" imageComplexity="VERY_SPARSE" altitudeIsAgl="TRUE" snapToGround="TRUE" snapToNormal="FALSE">
		<LibraryObject name="{61B0F32A-04BA-478B-80EF-DEEA377A6C81}" scale="0.300000"/>
	</SceneryObject>
	<!--SceneryObject name: Fence_Grilling02_High-->
	<SceneryObject displayName="Fence_Grilling02_High (copy 14)" groupIndex="150" lat="27.76264608585825" lon="-82.63297982278510" alt="0.00000000000000" pitch="0.003039" bank="-0.002131" heading="-89.774449" imageComplexity="VERY_SPARSE" altitudeIsAgl="TRUE" snapToGround="TRUE" snapToNormal="FALSE">
		<LibraryObject name="{61B0F32A-04BA-478B-80EF-DEEA377A6C81}" scale="0.300000"/>
	</SceneryObject>
	<!--SceneryObject name: Fence_Grilling02_High-->
	<SceneryObject displayName="Fence_Grilling02_High (copy 13)" groupIndex="151" lat="27.76264630630065" lon="-82.63304946332657" alt="0.00000000000000" pitch="0.003039" bank="-0.002131" heading="-89.774449" imageComplexity="VERY_SPARSE" altitudeIsAgl="TRUE" snapToGround="TRUE" snapToNormal="FALSE">
		<LibraryObject name="{61B0F32A-04BA-478B-80EF-DEEA377A6C81}" scale="0.300000"/>
	</SceneryObject>
	<!--SceneryObject name: Fence_Grilling02_High-->
	<SceneryObject displayName="Fence_Grilling02_High (copy 6)" groupIndex="154" lat="27.76264648049964" lon="-82.63353742208832" alt="0.00000000000000" pitch="0.002923" bank="-0.001544" heading="-90.461402" imageComplexity="VERY_SPARSE" altitudeIsAgl="TRUE" snapToGround="TRUE" snapToNormal="FALSE">
		<LibraryObject name="{61B0F32A-04BA-478B-80EF-DEEA377A6C81}" scale="0.300000"/>
	</SceneryObject>
	<!--SceneryObject name: Fence_Grilling02_High-->
	<SceneryObject displayName="Fence_Grilling02_High (copy 12)" groupIndex="152" lat="27.76264661418602" lon="-82.63311936226143" alt="0.00000000000000" pitch="0.003039" bank="-0.002131" heading="-89.774449" imageComplexity="VERY_SPARSE" altitudeIsAgl="TRUE" snapToGround="TRUE" snapToNormal="FALSE">
		<LibraryObject name="{61B0F32A-04BA-478B-80EF-DEEA377A6C81}" scale="0.300000"/>
	</SceneryObject>
	<!--SceneryObject name: Fence_Grilling02_High-->
	<SceneryObject displayName="Fence_Grilling02_High (copy 11)" groupIndex="147" lat="27.76264692284683" lon="-82.63318931285812" alt="0.00000000000000" pitch="0.003039" bank="-0.002131" heading="-89.774449" imageComplexity="VERY_SPARSE" altitudeIsAgl="TRUE" snapToGround="TRUE" snapToNormal="FALSE">
		<LibraryObject name="{61B0F32A-04BA-478B-80EF-DEEA377A6C81}" scale="0.300000"/>
	</SceneryObject>
	<!--SceneryObject name: Fence_Grilling02_High-->
	<SceneryObject displayName="Fence_Grilling02_High (copy 7)" groupIndex="144" lat="27.76264703226522" lon="-82.63346785615225" alt="0.00000000000000" pitch="0.002923" bank="-0.001544" heading="-90.461402" imageComplexity="VERY_SPARSE" altitudeIsAgl="TRUE" snapToGround="TRUE" snapToNormal="FALSE">
		<LibraryObject name="{61B0F32A-04BA-478B-80EF-DEEA377A6C81}" scale="0.300000"/>
	</SceneryObject>
	<!--SceneryObject name: Fence_Grilling02_High-->
	<SceneryObject displayName="Fence_Grilling02_High (copy 10)" groupIndex="146" lat="27.76264724266764" lon="-82.63325897925024" alt="0.00000000000000" pitch="0.003039" bank="-0.002131" heading="-89.774449" imageComplexity="VERY_SPARSE" altitudeIsAgl="TRUE" snapToGround="TRUE" snapToNormal="FALSE">
		<LibraryObject name="{61B0F32A-04BA-478B-80EF-DEEA377A6C81}" scale="0.300000"/>
	</SceneryObject>
	<!--SceneryObject name: Fence_Grilling02_High-->
	<SceneryObject displayName="Fence_Grilling02_High (copy 8)" groupIndex="153" lat="27.76264734948004" lon="-82.63339826156913" alt="0.00000000000000" pitch="0.002923" bank="-0.001544" heading="-90.461402" imageComplexity="VERY_SPARSE" altitudeIsAgl="TRUE" snapToGround="TRUE" snapToNormal="FALSE">
		<LibraryObject name="{61B0F32A-04BA-478B-80EF-DEEA377A6C81}" scale="0.300000"/>
	</SceneryObject>
	<!--SceneryObject name: Fence_Grilling02_High-->
	<SceneryObject displayName="Fence_Grilling02_High (copy 9)" groupIndex="145" lat="27.76264750730230" lon="-82.63332862133238" alt="0.00000000000000" pitch="0.003039" bank="-0.002131" heading="-89.774449" imageComplexity="VERY_SPARSE" altitudeIsAgl="TRUE" snapToGround="TRUE" snapToNormal="FALSE">
		<LibraryObject name="{61B0F32A-04BA-478B-80EF-DEEA377A6C81}" scale="0.300000"/>
	</SceneryObject>
	<!--SceneryObject name: Fence_Grilling02_High-->
	<SceneryObject displayName="Fence_Grilling02_High (copy 6)" groupIndex="142" lat="27.76375946409236" lon="-82.63375467800915" alt="0.00000000000000" pitch="0.001243" bank="-0.001243" heading="88.201259" imageComplexity="VERY_SPARSE" altitudeIsAgl="TRUE" snapToGround="TRUE" snapToNormal="FALSE">
		<LibraryObject name="{61B0F32A-04BA-478B-80EF-DEEA377A6C81}" scale="0.300000"/>
	</SceneryObject>
	<!--SceneryObject name: Fence_Grilling02_High-->
	<SceneryObject displayName="Fence_Grilling02_High (copy 5)" groupIndex="143" lat="27.76376082090410" lon="-82.63369925660113" alt="0.00000000000000" pitch="0.001243" bank="-0.001243" heading="88.201259" imageComplexity="VERY_SPARSE" altitudeIsAgl="TRUE" snapToGround="TRUE" snapToNormal="FALSE">
		<LibraryObject name="{61B0F32A-04BA-478B-80EF-DEEA377A6C81}" scale="0.300000"/>
	</SceneryObject>
	<!--SceneryObject name: Fence_Grilling02_High-->
	<SceneryObject displayName="Fence_Grilling02_High (copy 4)" groupIndex="141" lat="27.76379669928467" lon="-82.63366681320676" alt="0.00000000000000" pitch="0.000000" bank="0.000000" heading="-0.999994" imageComplexity="VERY_SPARSE" altitudeIsAgl="TRUE" snapToGround="TRUE" snapToNormal="FALSE">
		<LibraryObject name="{61B0F32A-04BA-478B-80EF-DEEA377A6C81}" scale="0.300000"/>
	</SceneryObject>
	<!--SceneryObject name: Fence_Grilling02_High-->
	<SceneryObject displayName="Fence_Grilling02_High (copy 3)" groupIndex="155" lat="27.76383351411108" lon="-82.63366739773787" alt="0.00000000000000" pitch="0.000000" bank="0.000000" heading="-0.999994" imageComplexity="VERY_SPARSE" altitudeIsAgl="TRUE" snapToGround="TRUE" snapToNormal="FALSE">
		<LibraryObject name="{61B0F32A-04BA-478B-80EF-DEEA377A6C81}" scale="0.300000"/>
	</SceneryObject>
	<!--SceneryObject name: Fence_Grilling02_High-->
	<SceneryObject displayName="Fence_Grilling02_High (copy 2)" groupIndex="140" lat="27.76389561589513" lon="-82.63366851053675" alt="0.00000000000000" pitch="0.000000" bank="0.000000" heading="-0.999994" imageComplexity="VERY_SPARSE" altitudeIsAgl="TRUE" snapToGround="TRUE" snapToNormal="FALSE">
		<LibraryObject name="{61B0F32A-04BA-478B-80EF-DEEA377A6C81}" scale="0.300000"/>
	</SceneryObject>
	<!--SceneryObject name: Fence_Grilling02_High-->
	<SceneryObject displayName="Fence_Grilling02_High (copy 1)" groupIndex="156" lat="27.76398047241651" lon="-82.63359137472960" alt="0.00000000000000" pitch="0.000000" bank="0.000000" heading="-0.999994" imageComplexity="VERY_SPARSE" altitudeIsAgl="TRUE" snapToGround="TRUE" snapToNormal="FALSE">
		<LibraryObject name="{61B0F32A-04BA-478B-80EF-DEEA377A6C81}" scale="0.300000"/>
	</SceneryObject>
	<!--SceneryObject name: Fence_Grilling02_High-->
	<SceneryObject displayName="Fence_Grilling02_High (copy)" groupIndex="83" lat="27.76404752990873" lon="-82.63359464972976" alt="0.00000000000000" pitch="0.000000" bank="0.000000" heading="-0.999994" imageComplexity="VERY_SPARSE" altitudeIsAgl="TRUE" snapToGround="TRUE" snapToNormal="FALSE">
		<LibraryObject name="{61B0F32A-04BA-478B-80EF-DEEA377A6C81}" scale="0.300000"/>
	</SceneryObject>
	<!--SceneryObject name: Fence_Grilling02_High-->
	<SceneryObject displayName="Fence_Grilling02_High (copy 2)" groupIndex="157" lat="27.76411034401902" lon="-82.63359587703420" alt="0.00000000000000" pitch="0.000000" bank="0.000000" heading="-0.999994" imageComplexity="VERY_SPARSE" altitudeIsAgl="TRUE" snapToGround="TRUE" snapToNormal="FALSE">
		<LibraryObject name="{61B0F32A-04BA-478B-80EF-DEEA377A6C81}" scale="0.300000"/>
	</SceneryObject>
	<!--SceneryObject name: Fence_Grilling02_High-->
	<SceneryObject displayName="Fence_Grilling02_High (copy 3)" groupIndex="158" lat="27.76417317312014" lon="-82.63359717779279" alt="0.00000000000000" pitch="0.000000" bank="0.000000" heading="-0.999994" imageComplexity="VERY_SPARSE" altitudeIsAgl="TRUE" snapToGround="TRUE" snapToNormal="FALSE">
		<LibraryObject name="{61B0F32A-04BA-478B-80EF-DEEA377A6C81}" scale="0.300000"/>
	</SceneryObject>
	<!--SceneryObject name: Fence_Grilling02_High-->
	<SceneryObject groupIndex="159" lat="27.76423692174933" lon="-82.63359805777499" alt="0.00000000000000" pitch="0.000000" bank="0.000000" heading="-0.999994" imageComplexity="VERY_SPARSE" altitudeIsAgl="TRUE" snapToGround="TRUE" snapToNormal="FALSE">
		<LibraryObject name="{61B0F32A-04BA-478B-80EF-DEEA377A6C81}" scale="0.300000"/>
	</SceneryObject>
	<!--SceneryObject name: Fence_Grilling02_High-->
	<SceneryObject displayName="Fence_Grilling02_High (copy 1)" groupIndex="160" lat="27.76429973585962" lon="-82.63359928507943" alt="0.00000000000000" pitch="0.000000" bank="0.000000" heading="-0.999994" imageComplexity="VERY_SPARSE" altitudeIsAgl="TRUE" snapToGround="TRUE" snapToNormal="FALSE">
		<LibraryObject name="{61B0F32A-04BA-478B-80EF-DEEA377A6C81}" scale="0.300000"/>
	</SceneryObject>
	<!--SceneryObject name: Fence_Grilling02_High-->
	<SceneryObject displayName="Fence_Grilling02_High (copy 2)" groupIndex="161" lat="27.76436256496075" lon="-82.63360058583802" alt="0.00000000000000" pitch="0.000000" bank="0.000000" heading="-0.999994" imageComplexity="VERY_SPARSE" altitudeIsAgl="TRUE" snapToGround="TRUE" snapToNormal="FALSE">
		<LibraryObject name="{61B0F32A-04BA-478B-80EF-DEEA377A6C81}" scale="0.300000"/>
	</SceneryObject>
	<!--SceneryObject name: Fence_Grilling02_High-->
	<SceneryObject displayName="Fence_Grilling02_High (copy)" groupIndex="162" lat="27.76489318877689" lon="-82.63320268144203" alt="0.00000000000000" pitch="0.000000" bank="0.000000" heading="-0.999994" imageComplexity="VERY_SPARSE" altitudeIsAgl="TRUE" snapToGround="TRUE" snapToNormal="FALSE">
		<LibraryObject name="{61B0F32A-04BA-478B-80EF-DEEA377A6C81}" scale="0.300000"/>
	</SceneryObject>
	<!--SceneryObject name: Fence_Grilling02_High-->
	<SceneryObject displayName="Fence_Grilling02_High (copy 3)" groupIndex="84" lat="27.76492852741155" lon="-82.63316637396424" alt="0.00000000000000" pitch="0.001544" bank="-0.001544" heading="88.223921" imageComplexity="VERY_SPARSE" altitudeIsAgl="TRUE" snapToGround="TRUE" snapToNormal="FALSE">
		<LibraryObject name="{61B0F32A-04BA-478B-80EF-DEEA377A6C81}" scale="0.300000"/>
	</SceneryObject>
	<!--SceneryObject name: Fence_Grilling02_High-->
	<SceneryObject displayName="Fence_Grilling02_High (copy 3)" groupIndex="135" lat="27.76493017233071" lon="-82.63309475076845" alt="0.00000000000000" pitch="0.001544" bank="-0.001544" heading="88.223921" imageComplexity="VERY_SPARSE" altitudeIsAgl="TRUE" snapToGround="TRUE" snapToNormal="FALSE">
		<LibraryObject name="{61B0F32A-04BA-478B-80EF-DEEA377A6C81}" scale="0.300000"/>
	</SceneryObject>
	<!--SceneryObject name: Fence_Grilling02_High-->
	<SceneryObject displayName="Fence_Grilling02_High (copy 2)" groupIndex="85" lat="27.76493180668896" lon="-82.63302412364108" alt="0.00000000000000" pitch="0.001544" bank="-0.001544" heading="88.223921" imageComplexity="VERY_SPARSE" altitudeIsAgl="TRUE" snapToGround="TRUE" snapToNormal="FALSE">
		<LibraryObject name="{61B0F32A-04BA-478B-80EF-DEEA377A6C81}" scale="0.300000"/>
	</SceneryObject>
	<!--SceneryObject name: Fence_Grilling02_High-->
	<SceneryObject displayName="Fence_Grilling02_High (copy 1)" groupIndex="86" lat="27.76493312413286" lon="-82.63287257209380" alt="0.00000000000000" pitch="0.001544" bank="-0.001544" heading="88.223921" imageComplexity="VERY_SPARSE" altitudeIsAgl="TRUE" snapToGround="TRUE" snapToNormal="FALSE">
		<LibraryObject name="{61B0F32A-04BA-478B-80EF-DEEA377A6C81}" scale="0.300000"/>
	</SceneryObject>
	<!--SceneryObject name: Fence_Grilling02_High-->
	<SceneryObject displayName="Fence_Grilling02_High (copy)" groupIndex="132" lat="27.76493323023972" lon="-82.63295242871146" alt="0.00000000000000" pitch="0.001544" bank="-0.001544" heading="89.666040" imageComplexity="VERY_SPARSE" altitudeIsAgl="TRUE" snapToGround="TRUE" snapToNormal="FALSE">
		<LibraryObject name="{61B0F32A-04BA-478B-80EF-DEEA377A6C81}" scale="0.300000"/>
	</SceneryObject>
	<!--SceneryObject name: Fence_Grilling02_High-->
	<SceneryObject displayName="Fence_Grilling02_High (copy)" groupIndex="137" lat="27.76493521810574" lon="-82.63280290848172" alt="0.00000000000000" pitch="0.001544" bank="-0.001544" heading="88.223921" imageComplexity="VERY_SPARSE" altitudeIsAgl="TRUE" snapToGround="TRUE" snapToNormal="FALSE">
		<LibraryObject name="{61B0F32A-04BA-478B-80EF-DEEA377A6C81}" scale="0.300000"/>
	</SceneryObject>
	<!--SceneryObject name: Fence_Grilling02_Middle-->
	<SceneryObject groupIndex="164" lat="27.76394233342093" lon="-82.63361273398125" alt="0.00000000000000" pitch="0.000806" bank="-0.000806" heading="70.355081" imageComplexity="VERY_SPARSE" altitudeIsAgl="TRUE" snapToGround="TRUE" snapToNormal="FALSE">
		<LibraryObject name="{3A4E8D11-881D-4AB4-A25E-B5BF93325EA7}" scale="0.300000"/>
	</SceneryObject>
	<!--SceneryObject name: Fence_Grilling02_Middle-->
	<SceneryObject displayName="Fence_Grilling02_Middle (copy)" groupIndex="175" lat="27.76484215052731" lon="-82.63320158985809" alt="0.00000000000000" pitch="0.000000" bank="0.000000" heading="-0.999994" imageComplexity="VERY_SPARSE" altitudeIsAgl="TRUE" snapToGround="TRUE" snapToNormal="FALSE">
		<LibraryObject name="{3A4E8D11-881D-4AB4-A25E-B5BF93325EA7}" scale="0.300000"/>
	</SceneryObject>
	<!--SceneryObject name: Fence_Light-->
	<SceneryObject groupIndex="18" lat="27.76744039998822" lon="-82.62649401958024" alt="0.00000000000000" pitch="0.001018" bank="-0.001018" heading="152.825455" imageComplexity="VERY_SPARSE" altitudeIsAgl="TRUE" snapToGround="TRUE" snapToNormal="FALSE">
		<LibraryObject name="{C4E8B41C-5991-42A9-A30F-F1E86B4B8C44}" scale="1.000000"/>
	</SceneryObject>
	<!--SceneryObject name: Fence_Light-->
	<SceneryObject displayName="Fence_Light (copy)" groupIndex="25" lat="27.76746364341502" lon="-82.62644247805363" alt="0.00000000000000" pitch="0.001018" bank="-0.001018" heading="152.825455" imageComplexity="VERY_SPARSE" altitudeIsAgl="TRUE" snapToGround="TRUE" snapToNormal="FALSE">
		<LibraryObject name="{C4E8B41C-5991-42A9-A30F-F1E86B4B8C44}" scale="1.000000"/>
	</SceneryObject>
	<!--SceneryObject name: Fence_Light-->
	<SceneryObject displayName="Fence_Light (copy 1)" groupIndex="24" lat="27.76748685694467" lon="-82.62639119512721" alt="0.00000000000000" pitch="0.001018" bank="-0.001018" heading="152.825455" imageComplexity="VERY_SPARSE" altitudeIsAgl="TRUE" snapToGround="TRUE" snapToNormal="FALSE">
		<LibraryObject name="{C4E8B41C-5991-42A9-A30F-F1E86B4B8C44}" scale="1.000000"/>
	</SceneryObject>
	<!--SceneryObject name: Fence_Light-->
	<SceneryObject displayName="Fence_Light (copy 2)" groupIndex="20" lat="27.76751039752323" lon="-82.62633939395860" alt="0.00000000000000" pitch="0.001018" bank="-0.001018" heading="152.825455" imageComplexity="VERY_SPARSE" altitudeIsAgl="TRUE" snapToGround="TRUE" snapToNormal="FALSE">
		<LibraryObject name="{C4E8B41C-5991-42A9-A30F-F1E86B4B8C44}" scale="1.000000"/>
	</SceneryObject>
	<!--SceneryObject name: Fence_Light-->
	<SceneryObject displayName="Fence_Light (copy 3)" groupIndex="21" lat="27.76753388287846" lon="-82.62628802025799" alt="0.00000000000000" pitch="0.001018" bank="-0.001018" heading="152.825455" imageComplexity="VERY_SPARSE" altitudeIsAgl="TRUE" snapToGround="TRUE" snapToNormal="FALSE">
		<LibraryObject name="{C4E8B41C-5991-42A9-A30F-F1E86B4B8C44}" scale="1.000000"/>
	</SceneryObject>
	<!--SceneryObject name: Fence_Light-->
	<SceneryObject displayName="Fence_Light (copy 4)" groupIndex="23" lat="27.76755734170097" lon="-82.62623741897671" alt="0.00000000000000" pitch="0.001544" bank="-0.001544" heading="63.566754" imageComplexity="VERY_SPARSE" altitudeIsAgl="TRUE" snapToGround="TRUE" snapToNormal="FALSE">
		<LibraryObject name="{C4E8B41C-5991-42A9-A30F-F1E86B4B8C44}" scale="1.000000"/>
	</SceneryObject>
	<!--SceneryObject name: Fence_Light-->
	<SceneryObject displayName="Fence_Light (copy 5)" groupIndex="22" lat="27.76760261024625" lon="-82.62626279701780" alt="0.00000000000000" pitch="0.001544" bank="-0.001544" heading="63.566754" imageComplexity="VERY_SPARSE" altitudeIsAgl="TRUE" snapToGround="TRUE" snapToNormal="FALSE">
		<LibraryObject name="{C4E8B41C-5991-42A9-A30F-F1E86B4B8C44}" scale="1.000000"/>
	</SceneryObject>
	<!--SceneryObject name: Fence_Metal_03_High-->
	<SceneryObject displayName="Fence_Metal_03_High (copy)" groupIndex="50" lat="27.76270194843036" lon="-82.63205403491494" alt="0.00000000000000" pitch="0.000929" bank="-0.000929" heading="-66.939433" imageComplexity="VERY_SPARSE" altitudeIsAgl="TRUE" snapToGround="TRUE" snapToNormal="FALSE">
		<LibraryObject name="{2D76CCCE-FEE5-4EDC-B541-EE530197851E}" scale="1.000000"/>
	</SceneryObject>
	<!--SceneryObject name: Fence_Metal_03_High-->
	<SceneryObject groupIndex="49" lat="27.76278694007305" lon="-82.63227899421624" alt="0.00000000000000" pitch="0.000929" bank="-0.000929" heading="-66.939433" imageComplexity="VERY_SPARSE" altitudeIsAgl="TRUE" snapToGround="TRUE" snapToNormal="FALSE">
		<LibraryObject name="{2D76CCCE-FEE5-4EDC-B541-EE530197851E}" scale="1.000000"/>
	</SceneryObject>
	<!--SceneryObject name: Fence_Metal_03_Little-->
	<SceneryObject groupIndex="51" lat="27.76265155457177" lon="-82.63191894361766" alt="0.00000000000000" pitch="0.000929" bank="-0.000915" heading="-67.753264" imageComplexity="VERY_SPARSE" altitudeIsAgl="TRUE" snapToGround="TRUE" snapToNormal="FALSE">
		<LibraryObject name="{ED716FC6-C702-4856-9377-4C523FC52C02}" scale="1.000000"/>
	</SceneryObject>
	<!--SceneryObject name: FishingBoat_BlueRed-->
	<SceneryObject groupIndex="95" lat="27.75839517436732" lon="-82.63013779344678" alt="0.00000000000000" pitch="0.001544" bank="-0.001544" heading="88.309503" imageComplexity="VERY_SPARSE" altitudeIsAgl="TRUE" snapToGround="TRUE" snapToNormal="FALSE">
		<LibraryObject name="{B163A0DF-88DE-43E8-A62A-8BB9F9B6DC5D}" scale="1.000000"/>
	</SceneryObject>
	<!--SceneryObject name: FishingBoat_White-->
	<SceneryObject groupIndex="197" lat="27.76026262077671" lon="-82.63337105448228" alt="0.00000000000000" pitch="0.000471" bank="-0.000471" heading="-141.831214" imageComplexity="VERY_SPARSE" altitudeIsAgl="TRUE" snapToGround="TRUE" snapToNormal="FALSE">
		<LibraryObject name="{29390644-85C7-43EB-BC9A-F9A9565F96E9}" scale="0.550000"/>
	</SceneryObject>
	<!--SceneryObject name: FishingBoat_White-->
	<SceneryObject groupIndex="71" lat="27.76126971186599" lon="-82.62721248386271" alt="0.00000000000000" pitch="0.000785" bank="-0.000772" heading="153.101996" imageComplexity="VERY_SPARSE" altitudeIsAgl="TRUE" snapToGround="TRUE" snapToNormal="FALSE">
		<LibraryObject name="{29390644-85C7-43EB-BC9A-F9A9565F96E9}" scale="0.680000"/>
	</SceneryObject>
	<!--SceneryObject name: FishingShip03-->
	<SceneryObject groupIndex="208" lat="27.76185745030851" lon="-82.63042092145112" alt="0.00000000000000" pitch="0.001243" bank="-0.001243" heading="87.607230" imageComplexity="VERY_SPARSE" altitudeIsAgl="TRUE" snapToGround="TRUE" snapToNormal="FALSE">
		<LibraryObject name="{43ACD44B-9D5A-4171-A380-D1D9D22F1080}" scale="2.519999"/>
	</SceneryObject>
	<SceneryObject groupIndex="200" lat="27.76463358310924" lon="-82.62710567008956" alt="0.00000000000000" pitch="0.000656" bank="-0.000656" heading="90.312163" imageComplexity="VERY_SPARSE" altitudeIsAgl="TRUE" snapToGround="TRUE" snapToNormal="FALSE">
		<SimObject containerTitle="ASO_FuelTruck01_White" scale="1.000000"/>
	</SceneryObject>
	<SceneryObject groupIndex="138" lat="27.76438651361135" lon="-82.63323775587590" alt="0.00000000000000" pitch="0.001421" bank="-0.001421" heading="37.901413" imageComplexity="VERY_SPARSE" altitudeIsAgl="TRUE" snapToGround="TRUE" snapToNormal="FALSE">
		<SimObject containerTitle="Beechcraft King Air 350i Asobo" scale="1.080000"/>
	</SceneryObject>
	<SceneryObject groupIndex="136" lat="27.76295034589866" lon="-82.63105678145973" alt="0.00000000000000" pitch="0.001523" bank="-0.001523" heading="3.720486" imageComplexity="VERY_SPARSE" altitudeIsAgl="TRUE" snapToGround="TRUE" snapToNormal="FALSE">
		<SimObject containerTitle="Bonanza G36 Asobo" scale="1.000000"/>
	</SceneryObject>
	<SceneryObject groupIndex="167" lat="27.76477337054513" lon="-82.63230198000865" alt="0.00000000000000" pitch="0.001544" bank="-0.001544" heading="153.535604" imageComplexity="VERY_SPARSE" altitudeIsAgl="TRUE" snapToGround="TRUE" snapToNormal="FALSE">
		<SimObject containerTitle="Bonanza G36 Asobo" scale="1.000000"/>
	</SceneryObject>
	<SceneryObject groupIndex="94" lat="27.76276355165470" lon="-82.63132006725036" alt="0.00000000000000" pitch="0.001202" bank="-0.001202" heading="0.176601" imageComplexity="VERY_SPARSE" altitudeIsAgl="TRUE" snapToGround="TRUE" snapToNormal="FALSE">
		<SimObject containerTitle="Cessna 152 01 Livery" scale="1.000000"/>
	</SceneryObject>
	<SceneryObject groupIndex="74" lat="27.76453374811366" lon="-82.63295659876195" alt="0.00000000000000" pitch="0.001298" bank="-0.001298" heading="-132.243923" imageComplexity="VERY_SPARSE" altitudeIsAgl="TRUE" snapToGround="TRUE" snapToNormal="FALSE">
		<SimObject containerTitle="Cessna 152 Asobo" scale="1.000000"/>
	</SceneryObject>
	<SceneryObject displayName="SimObject Cessna 152 Asobo Livery 07 DC (copy)" groupIndex="129" lat="27.76278973091001" lon="-82.63206860539778" alt="0.00000000000000" pitch="0.001086" bank="-0.001086" heading="20.349886" imageComplexity="VERY_SPARSE" altitudeIsAgl="TRUE" snapToGround="TRUE" snapToNormal="FALSE">
		<SimObject containerTitle="Cessna 152 Asobo Livery 07 DC" scale="1.000000"/>
	</SceneryObject>
	<SceneryObject groupIndex="130" lat="27.76295561638376" lon="-82.63131949086603" alt="0.00000000000000" pitch="0.000744" bank="-0.000744" heading="5.209460" imageComplexity="VERY_SPARSE" altitudeIsAgl="TRUE" snapToGround="TRUE" snapToNormal="FALSE">
		<SimObject containerTitle="Cessna 152 Asobo Livery 07 DC" scale="1.000000"/>
	</SceneryObject>
	<SceneryObject groupIndex="171" lat="27.76470436961825" lon="-82.63243013734746" alt="0.00000000000000" pitch="-2.058988" bank="1.000677" heading="153.231934" imageComplexity="VERY_SPARSE" altitudeIsAgl="TRUE" snapToGround="TRUE" snapToNormal="FALSE">
		<SimObject containerTitle="Cessna Skyhawk 172Sp G1000 Kenmore Livery" scale="1.000000"/>
	</SceneryObject>
	<SceneryObject groupIndex="133" lat="27.76275179349583" lon="-82.63105923717676" alt="0.00000000000000" pitch="0.001523" bank="-0.001523" heading="3.720486" imageComplexity="VERY_SPARSE" altitudeIsAgl="TRUE" snapToGround="TRUE" snapToNormal="FALSE">
		<SimObject containerTitle="Cessna Skyhawk 172Sp G1000 Tow Plane" scale="1.000000"/>
	</SceneryObject>
	<SceneryObject groupIndex="134" lat="27.76258268389590" lon="-82.63117572510347" alt="0.00000000000000" pitch="0.001523" bank="-0.001523" heading="3.720486" imageComplexity="VERY_SPARSE" altitudeIsAgl="TRUE" snapToGround="TRUE" snapToNormal="FALSE">
		<SimObject containerTitle="DA40-NG Asobo" scale="1.000000"/>
	</SceneryObject>
	<SceneryObject groupIndex="253" lat="27.76371579401382" lon="-82.62869602752465" alt="0.00000000000000" pitch="0.000867" bank="-0.000867" heading="-89.505442" imageComplexity="VERY_SPARSE" altitudeIsAgl="TRUE" snapToGround="TRUE" snapToNormal="FALSE">
		<SimObject containerTitle="Generic Piston Multi Engines Asobo 01" scale="1.000000"/>
	</SceneryObject>
	<SceneryObject groupIndex="1" lat="27.76420398251760" lon="-82.62774853332748" alt="0.00000000000000" pitch="0.000724" bank="-0.000669" heading="-2.386823" imageComplexity="VERY_SPARSE" altitudeIsAgl="TRUE" snapToGround="TRUE" snapToNormal="FALSE">
		<SimObject containerTitle="Generic Piston Single Engine Asobo 02" scale="1.000000"/>
	</SceneryObject>
	<SceneryObject groupIndex="131" lat="27.76295332566481" lon="-82.63065667699723" alt="0.00000000000000" pitch="0.000663" bank="-0.000663" heading="-34.519090" imageComplexity="VERY_SPARSE" altitudeIsAgl="TRUE" snapToGround="TRUE" snapToNormal="FALSE">
		<SimObject containerTitle="Generic Turbo Multi Engines Asobo 01" scale="1.000000"/>
	</SceneryObject>
	<SceneryObject groupIndex="166" lat="27.76486285599954" lon="-82.63287692268663" alt="0.00000000000000" pitch="0.000840" bank="-0.000840" heading="177.379357" imageComplexity="VERY_SPARSE" altitudeIsAgl="TRUE" snapToGround="TRUE" snapToNormal="FALSE">
		<SimObject containerTitle="Pitts Special S2S Kenmore Livery" scale="1.000000"/>
	</SceneryObject>
	<!--SceneryObject name: StreetLamp_Type1_Double-->
	<SceneryObject groupIndex="46" lat="27.76256149180248" lon="-82.63013623983827" alt="0.00000000000000" pitch="0.000000" bank="0.000000" heading="-179.999995" imageComplexity="VERY_SPARSE" altitudeIsAgl="TRUE" snapToGround="TRUE" snapToNormal="FALSE">
		<LibraryObject name="{0458C636-D8D2-4860-AB9C-C6E4F3B0EE75}" scale="1.000000"/>
	</SceneryObject>
	<!--SceneryObject name: StreetLamp_Type1_Double-->
	<SceneryObject groupIndex="43" lat="27.76263023953364" lon="-82.63095768083015" alt="0.00000000000000" pitch="0.000000" bank="0.000000" heading="-179.999995" imageComplexity="VERY_SPARSE" altitudeIsAgl="TRUE" snapToGround="TRUE" snapToNormal="FALSE">
		<LibraryObject name="{0458C636-D8D2-4860-AB9C-C6E4F3B0EE75}" scale="1.000000"/>
	</SceneryObject>
	<!--SceneryObject name: StreetLamp_Type1_Double-->
	<SceneryObject displayName="StreetLamp_Type1_Double (copy 5)" groupIndex="58" lat="27.76305060307621" lon="-82.62870071006348" alt="0.00000000000000" pitch="0.001544" bank="-0.001544" heading="91.556705" imageComplexity="VERY_SPARSE" altitudeIsAgl="TRUE" snapToGround="TRUE" snapToNormal="FALSE">
		<LibraryObject name="{0458C636-D8D2-4860-AB9C-C6E4F3B0EE75}" scale="1.000000"/>
	</SceneryObject>
	<!--SceneryObject name: StreetLamp_Type1_Double-->
	<SceneryObject displayName="StreetLamp_Type1_Double (copy 2)" groupIndex="64" lat="27.76306467095419" lon="-82.62957761813594" alt="0.00000000000000" pitch="0.001544" bank="-0.001544" heading="91.556705" imageComplexity="VERY_SPARSE" altitudeIsAgl="TRUE" snapToGround="TRUE" snapToNormal="FALSE">
		<LibraryObject name="{0458C636-D8D2-4860-AB9C-C6E4F3B0EE75}" scale="1.000000"/>
	</SceneryObject>
	<!--SceneryObject name: StreetLamp_Type1_Double-->
	<SceneryObject displayName="StreetLamp_Type1_Double (copy 4)" groupIndex="62" lat="27.76306535173104" lon="-82.62891651007062" alt="0.00000000000000" pitch="0.001544" bank="-0.001544" heading="91.556705" imageComplexity="VERY_SPARSE" altitudeIsAgl="TRUE" snapToGround="TRUE" snapToNormal="FALSE">
		<LibraryObject name="{0458C636-D8D2-4860-AB9C-C6E4F3B0EE75}" scale="1.000000"/>
	</SceneryObject>
	<!--SceneryObject name: StreetLamp_Type1_Double-->
	<SceneryObject groupIndex="67" lat="27.76321803925955" lon="-82.63114856825544" alt="0.00000000000000" pitch="0.001544" bank="-0.001544" heading="91.556705" imageComplexity="VERY_SPARSE" altitudeIsAgl="TRUE" snapToGround="TRUE" snapToNormal="FALSE">
		<LibraryObject name="{0458C636-D8D2-4860-AB9C-C6E4F3B0EE75}" scale="1.000000"/>
	</SceneryObject>
	<!--SceneryObject name: StreetLamp_Type1_Double-->
	<SceneryObject displayName="StreetLamp_Type1_Double (copy)" groupIndex="66" lat="27.76322719076110" lon="-82.63012721891523" alt="0.00000000000000" pitch="0.001544" bank="-0.001544" heading="91.556705" imageComplexity="VERY_SPARSE" altitudeIsAgl="TRUE" snapToGround="TRUE" snapToNormal="FALSE">
		<LibraryObject name="{0458C636-D8D2-4860-AB9C-C6E4F3B0EE75}" scale="1.000000"/>
	</SceneryObject>
	<!--SceneryObject name: StreetLamp_Type1_Double-->
	<SceneryObject displayName="StreetLamp_Type1_Double (copy 3)" groupIndex="63" lat="27.76339088488804" lon="-82.62890763292332" alt="0.00000000000000" pitch="0.001544" bank="-0.001544" heading="91.556705" imageComplexity="VERY_SPARSE" altitudeIsAgl="TRUE" snapToGround="TRUE" snapToNormal="FALSE">
		<LibraryObject name="{0458C636-D8D2-4860-AB9C-C6E4F3B0EE75}" scale="1.000000"/>
	</SceneryObject>
	<!--SceneryObject name: StreetLamp_Type1_Double-->
	<SceneryObject displayName="StreetLamp_Type1_Double (copy 1)" groupIndex="65" lat="27.76339216460254" lon="-82.62993438197419" alt="0.00000000000000" pitch="0.001544" bank="-0.001544" heading="91.556705" imageComplexity="VERY_SPARSE" altitudeIsAgl="TRUE" snapToGround="TRUE" snapToNormal="FALSE">
		<LibraryObject name="{0458C636-D8D2-4860-AB9C-C6E4F3B0EE75}" scale="1.000000"/>
	</SceneryObject>
	<!--SceneryObject name: StreetLamp_Type1_Double-->
	<SceneryObject displayName="StreetLamp_Type1_Double (copy 6)" groupIndex="61" lat="27.76341572879413" lon="-82.62870935645812" alt="0.00000000000000" pitch="0.001544" bank="-0.001544" heading="91.556705" imageComplexity="VERY_SPARSE" altitudeIsAgl="TRUE" snapToGround="TRUE" snapToNormal="FALSE">
		<LibraryObject name="{0458C636-D8D2-4860-AB9C-C6E4F3B0EE75}" scale="1.000000"/>
	</SceneryObject>
	<!--SceneryObject name: StreetLamp_Type1_Double-->
	<SceneryObject groupIndex="69" lat="27.76350262647748" lon="-82.63115524556828" alt="0.00000000000000" pitch="0.001284" bank="-0.001284" heading="-90.326260" imageComplexity="VERY_SPARSE" altitudeIsAgl="TRUE" snapToGround="TRUE" snapToNormal="FALSE">
		<LibraryObject name="{0458C636-D8D2-4860-AB9C-C6E4F3B0EE75}" scale="1.000000"/>
	</SceneryObject>
	<!--SceneryObject name: StreetLamp_Type1_Double-->
	<SceneryObject displayName="StreetLamp_Type1_Double (copy 1)" groupIndex="57" lat="27.76351403741807" lon="-82.63013641461067" alt="0.00000000000000" pitch="0.001544" bank="-0.001544" heading="91.556705" imageComplexity="VERY_SPARSE" altitudeIsAgl="TRUE" snapToGround="TRUE" snapToNormal="FALSE">
		<LibraryObject name="{0458C636-D8D2-4860-AB9C-C6E4F3B0EE75}" scale="1.000000"/>
	</SceneryObject>
	<!--SceneryObject name: StreetLamp_Type1_Double-->
	<SceneryObject displayName="StreetLamp_Type1_Double (copy 7)" groupIndex="59" lat="27.76370955232270" lon="-82.62891018017875" alt="0.00000000000000" pitch="0.001544" bank="-0.001544" heading="91.556705" imageComplexity="VERY_SPARSE" altitudeIsAgl="TRUE" snapToGround="TRUE" snapToNormal="FALSE">
		<LibraryObject name="{0458C636-D8D2-4860-AB9C-C6E4F3B0EE75}" scale="1.000000"/>
	</SceneryObject>
	<!--SceneryObject name: StreetLamp_Type1_Double-->
	<SceneryObject displayName="StreetLamp_Type1_Double (copy 8)" groupIndex="60" lat="27.76373623025647" lon="-82.62861192970053" alt="0.00000000000000" pitch="0.001544" bank="-0.001544" heading="91.556705" imageComplexity="VERY_SPARSE" altitudeIsAgl="TRUE" snapToGround="TRUE" snapToNormal="FALSE">
		<LibraryObject name="{0458C636-D8D2-4860-AB9C-C6E4F3B0EE75}" scale="1.000000"/>
	</SceneryObject>
	<!--SceneryObject name: StreetLamp_Type1_Double-->
	<SceneryObject displayName="StreetLamp_Type1_Double (copy 1)" groupIndex="28" lat="27.76414312579341" lon="-82.62991956897366" alt="0.00000000000000" pitch="0.002787" bank="-0.002787" heading="134.390570" imageComplexity="VERY_SPARSE" altitudeIsAgl="TRUE" snapToGround="TRUE" snapToNormal="FALSE">
		<LibraryObject name="{0458C636-D8D2-4860-AB9C-C6E4F3B0EE75}" scale="1.000000"/>
	</SceneryObject>
	<!--SceneryObject name: StreetLamp_Type1_Double-->
	<SceneryObject displayName="StreetLamp_Type1_Double (copy)" groupIndex="31" lat="27.76415000368659" lon="-82.62893310340752" alt="0.00000000000000" pitch="0.002179" bank="-0.002179" heading="28.997179" imageComplexity="VERY_SPARSE" altitudeIsAgl="TRUE" snapToGround="TRUE" snapToNormal="FALSE">
		<LibraryObject name="{0458C636-D8D2-4860-AB9C-C6E4F3B0EE75}" scale="1.000000"/>
	</SceneryObject>
	<!--SceneryObject name: StreetLamp_Type1_Double-->
	<SceneryObject groupIndex="48" lat="27.76415413496850" lon="-82.62870878655207" alt="0.00000000000000" pitch="0.001544" bank="-0.001544" heading="126.760279" imageComplexity="VERY_SPARSE" altitudeIsAgl="TRUE" snapToGround="TRUE" snapToNormal="FALSE">
		<LibraryObject name="{0458C636-D8D2-4860-AB9C-C6E4F3B0EE75}" scale="1.000000"/>
	</SceneryObject>
	<!--SceneryObject name: StreetLamp_Type1_Double-->
	<SceneryObject groupIndex="232" lat="27.76423342886046" lon="-82.62721469889911" alt="0.00000000000000" pitch="0.000000" bank="0.000000" heading="-179.999995" imageComplexity="VERY_SPARSE" altitudeIsAgl="TRUE" snapToGround="TRUE" snapToNormal="FALSE">
		<LibraryObject name="{0458C636-D8D2-4860-AB9C-C6E4F3B0EE75}" scale="1.000000"/>
	</SceneryObject>
	<!--SceneryObject name: StreetLamp_Type1_Double-->
	<SceneryObject groupIndex="231" lat="27.76423493772881" lon="-82.62752676602641" alt="0.00000000000000" pitch="0.000000" bank="0.000000" heading="-179.999995" imageComplexity="VERY_SPARSE" altitudeIsAgl="TRUE" snapToGround="TRUE" snapToNormal="FALSE">
		<LibraryObject name="{0458C636-D8D2-4860-AB9C-C6E4F3B0EE75}" scale="1.000000"/>
	</SceneryObject>
	<!--SceneryObject name: StreetLamp_Type1_Double-->
	<SceneryObject groupIndex="233" lat="27.76423763299349" lon="-82.62690387854479" alt="0.00000000000000" pitch="0.000000" bank="0.000000" heading="-179.999995" imageComplexity="VERY_SPARSE" altitudeIsAgl="TRUE" snapToGround="TRUE" snapToNormal="FALSE">
		<LibraryObject name="{0458C636-D8D2-4860-AB9C-C6E4F3B0EE75}" scale="1.000000"/>
	</SceneryObject>
	<!--SceneryObject name: StreetLamp_Type1_Double-->
	<SceneryObject groupIndex="27" lat="27.76424534476412" lon="-82.62609507206423" alt="0.00000000000000" pitch="0.000000" bank="0.000000" heading="-179.999995" imageComplexity="VERY_SPARSE" altitudeIsAgl="TRUE" snapToGround="TRUE" snapToNormal="FALSE">
		<LibraryObject name="{0458C636-D8D2-4860-AB9C-C6E4F3B0EE75}" scale="1.000000"/>
	</SceneryObject>
	<!--SceneryObject name: StreetLamp_Type1_Double-->
	<SceneryObject groupIndex="16" lat="27.76424755283347" lon="-82.62625530904036" alt="0.00000000000000" pitch="0.000000" bank="0.000000" heading="-179.999995" imageComplexity="VERY_SPARSE" altitudeIsAgl="TRUE" snapToGround="TRUE" snapToNormal="FALSE">
		<LibraryObject name="{0458C636-D8D2-4860-AB9C-C6E4F3B0EE75}" scale="1.000000"/>
	</SceneryObject>
	<!--SceneryObject name: StreetLamp_Type1_Quadruple-->
	<SceneryObject groupIndex="38" lat="27.76244889386337" lon="-82.63306928581248" alt="0.00000000000000" pitch="0.000000" bank="0.000000" heading="-179.999995" imageComplexity="VERY_SPARSE" altitudeIsAgl="TRUE" snapToGround="TRUE" snapToNormal="FALSE">
		<LibraryObject name="{0655FC60-689E-4870-A8F8-B3FBA5D74601}" scale="1.000000"/>
	</SceneryObject>
	<!--SceneryObject name: StreetLamp_Type1_Quadruple-->
	<SceneryObject groupIndex="32" lat="27.76245295994592" lon="-82.63363303014630" alt="0.00000000000000" pitch="0.000000" bank="0.000000" heading="-179.999995" imageComplexity="VERY_SPARSE" altitudeIsAgl="TRUE" snapToGround="TRUE" snapToNormal="FALSE">
		<LibraryObject name="{0655FC60-689E-4870-A8F8-B3FBA5D74601}" scale="1.000000"/>
	</SceneryObject>
	<!--SceneryObject name: StreetLamp_Type1_Quadruple-->
	<SceneryObject groupIndex="29" lat="27.76247690828268" lon="-82.63338020573110" alt="0.00000000000000" pitch="0.000000" bank="0.000000" heading="-179.999995" imageComplexity="VERY_SPARSE" altitudeIsAgl="TRUE" snapToGround="TRUE" snapToNormal="FALSE">
		<LibraryObject name="{0655FC60-689E-4870-A8F8-B3FBA5D74601}" scale="1.000000"/>
	</SceneryObject>
	<!--SceneryObject name: StreetLamp_Type1_Single-->
	<SceneryObject groupIndex="45" lat="27.76253661932357" lon="-82.63152990361313" alt="0.00000000000000" pitch="0.000437" bank="-0.000437" heading="152.002390" imageComplexity="VERY_SPARSE" altitudeIsAgl="TRUE" snapToGround="TRUE" snapToNormal="FALSE">
		<LibraryObject name="{163C942C-189A-4380-8B03-FDEE4ABC525B}" scale="1.000000"/>
	</SceneryObject>
	<!--SceneryObject name: StreetLamp_Type1_Single-->
	<SceneryObject groupIndex="236" lat="27.76266474119281" lon="-82.63291746380416" alt="0.00000000000000" pitch="0.001509" bank="-0.001509" heading="33.826495" imageComplexity="VERY_SPARSE" altitudeIsAgl="TRUE" snapToGround="TRUE" snapToNormal="FALSE">
		<LibraryObject name="{163C942C-189A-4380-8B03-FDEE4ABC525B}" scale="1.000000"/>
	</SceneryObject>
	<!--SceneryObject name: StreetLamp_Type1_Single-->
	<SceneryObject groupIndex="235" lat="27.76268617453992" lon="-82.63360509528665" alt="0.00000000000000" pitch="0.000000" bank="0.000000" heading="-179.999995" imageComplexity="VERY_SPARSE" altitudeIsAgl="TRUE" snapToGround="TRUE" snapToNormal="FALSE">
		<LibraryObject name="{163C942C-189A-4380-8B03-FDEE4ABC525B}" scale="1.000000"/>
	</SceneryObject>
	<!--SceneryObject name: StreetLamp_Type1_Single-->
	<SceneryObject groupIndex="44" lat="27.76282996072618" lon="-82.63237761425611" alt="0.00000000000000" pitch="0.000000" bank="0.000000" heading="-179.999995" imageComplexity="VERY_SPARSE" altitudeIsAgl="TRUE" snapToGround="TRUE" snapToNormal="FALSE">
		<LibraryObject name="{163C942C-189A-4380-8B03-FDEE4ABC525B}" scale="1.000000"/>
	</SceneryObject>
	<!--SceneryObject name: StreetLamp_Type1_Single-->
	<SceneryObject groupIndex="40" lat="27.76283192123365" lon="-82.63288230057236" alt="0.00000000000000" pitch="0.001277" bank="-0.001277" heading="44.652772" imageComplexity="VERY_SPARSE" altitudeIsAgl="TRUE" snapToGround="TRUE" snapToNormal="FALSE">
		<LibraryObject name="{163C942C-189A-4380-8B03-FDEE4ABC525B}" scale="1.000000"/>
	</SceneryObject>
	<!--SceneryObject name: StreetLamp_Type1_Single-->
	<SceneryObject groupIndex="47" lat="27.76286782456075" lon="-82.63032825680216" alt="0.00000000000000" pitch="0.000000" bank="0.000000" heading="-179.999995" imageComplexity="VERY_SPARSE" altitudeIsAgl="TRUE" snapToGround="TRUE" snapToNormal="FALSE">
		<LibraryObject name="{163C942C-189A-4380-8B03-FDEE4ABC525B}" scale="1.000000"/>
	</SceneryObject>
	<!--SceneryObject name: StreetLamp_Type1_Single-->
	<SceneryObject groupIndex="234" lat="27.76291996431571" lon="-82.63359320150639" alt="0.00000000000000" pitch="0.000861" bank="-0.000861" heading="-156.810816" imageComplexity="VERY_SPARSE" altitudeIsAgl="TRUE" snapToGround="TRUE" snapToNormal="FALSE">
		<LibraryObject name="{163C942C-189A-4380-8B03-FDEE4ABC525B}" scale="1.000000"/>
	</SceneryObject>
	<!--SceneryObject name: StreetLamp_Type1_Single-->
	<SceneryObject displayName="StreetLamp_Type1_Single (copy)" groupIndex="55" lat="27.76297294450044" lon="-82.63187685498889" alt="0.00000000000000" pitch="0.001544" bank="-0.001544" heading="57.088589" imageComplexity="VERY_SPARSE" altitudeIsAgl="TRUE" snapToGround="TRUE" snapToNormal="FALSE">
		<LibraryObject name="{163C942C-189A-4380-8B03-FDEE4ABC525B}" scale="1.000000"/>
	</SceneryObject>
	<!--SceneryObject name: StreetLamp_Type1_Single-->
	<SceneryObject groupIndex="52" lat="27.76297304396539" lon="-82.63153971965060" alt="0.00000000000000" pitch="0.000533" bank="-0.000533" heading="148.556423" imageComplexity="VERY_SPARSE" altitudeIsAgl="TRUE" snapToGround="TRUE" snapToNormal="FALSE">
		<LibraryObject name="{163C942C-189A-4380-8B03-FDEE4ABC525B}" scale="1.000000"/>
	</SceneryObject>
	<!--SceneryObject name: StreetLamp_Type1_Single-->
	<SceneryObject groupIndex="68" lat="27.76415311846178" lon="-82.62796574922581" alt="0.00000000000000" pitch="0.000000" bank="0.000000" heading="-179.999995" imageComplexity="VERY_SPARSE" altitudeIsAgl="TRUE" snapToGround="TRUE" snapToNormal="FALSE">
		<LibraryObject name="{163C942C-189A-4380-8B03-FDEE4ABC525B}" scale="1.000000"/>
	</SceneryObject>
	<!--SceneryObject name: StreetLamp_Type1_Single-->
	<SceneryObject groupIndex="33" lat="27.76748342381922" lon="-82.62651748244161" alt="0.00000000000000" pitch="0.001346" bank="-0.001346" heading="-26.031415" imageComplexity="VERY_SPARSE" altitudeIsAgl="TRUE" snapToGround="TRUE" snapToNormal="FALSE">
		<LibraryObject name="{163C942C-189A-4380-8B03-FDEE4ABC525B}" scale="1.000000"/>
	</SceneryObject>
	<!--SceneryObject name: StreetLamp_Type4_Double-->
	<SceneryObject groupIndex="79" lat="27.76447763859058" lon="-82.63336915464336" alt="0.00000000000000" pitch="0.001544" bank="-0.001544" heading="-94.310890" imageComplexity="VERY_SPARSE" altitudeIsAgl="TRUE" snapToGround="TRUE" snapToNormal="FALSE">
		<LibraryObject name="{B892A3C0-8488-42A7-BC25-01615B7EEB31}" scale="1.000000"/>
	</SceneryObject>
	<!--SceneryObject name: StreetLamp_Type4_Double-->
	<SceneryObject groupIndex="76" lat="27.76461188391302" lon="-82.63313360399351" alt="0.00000000000000" pitch="0.000000" bank="0.000000" heading="-179.999995" imageComplexity="VERY_SPARSE" altitudeIsAgl="TRUE" snapToGround="TRUE" snapToNormal="FALSE">
		<LibraryObject name="{B892A3C0-8488-42A7-BC25-01615B7EEB31}" scale="1.000000"/>
	</SceneryObject>
	<!--SceneryObject name: StreetLamp_Type4_Single-->
	<SceneryObject groupIndex="80" lat="27.76491431374087" lon="-82.63316889058608" alt="0.00000000000000" pitch="0.001544" bank="-0.001544" heading="-127.492270" imageComplexity="VERY_SPARSE" altitudeIsAgl="TRUE" snapToGround="TRUE" snapToNormal="FALSE">
		<LibraryObject name="{B8C5684A-0A82-4B53-8619-ED99A0421481}" scale="1.000000"/>
	</SceneryObject>
	<!--SceneryObject name: StreetLamp_Type4_Single-->
	<SceneryObject groupIndex="78" lat="27.76492322149840" lon="-82.63299942553088" alt="0.00000000000000" pitch="0.001161" bank="-0.001161" heading="-88.572343" imageComplexity="VERY_SPARSE" altitudeIsAgl="TRUE" snapToGround="TRUE" snapToNormal="FALSE">
		<LibraryObject name="{B8C5684A-0A82-4B53-8619-ED99A0421481}" scale="1.000000"/>
	</SceneryObject>
	<!--SceneryObject name: StreetLamp_Type4_Single-->
	<SceneryObject groupIndex="81" lat="27.76492710828560" lon="-82.63271716099510" alt="0.00000000000000" pitch="0.001202" bank="-0.001202" heading="-56.910704" imageComplexity="VERY_SPARSE" altitudeIsAgl="TRUE" snapToGround="TRUE" snapToNormal="FALSE">
		<LibraryObject name="{B8C5684A-0A82-4B53-8619-ED99A0421481}" scale="1.000000"/>
	</SceneryObject>
	<SceneryObject groupIndex="2" lat="27.76470253907642" lon="-82.63175782549401" alt="0.00000000000000" pitch="0.000000" bank="0.000000" heading="0.000000" imageComplexity="VERY_SPARSE" altitudeIsAgl="TRUE" snapToGround="TRUE" snapToNormal="FALSE">
		<Windsock poleHeight="4.572000" sockLength="2.743200" lighted="FALSE" containerTitle="Windsock"/>
	</SceneryObject>
	<!--SceneryObject name: tpf_windcircle-->
	<SceneryObject groupIndex="75" lat="27.76475751359800" lon="-82.62574178394584" alt="0.00000000000000" pitch="0.001434" bank="-0.001434" heading="176.806113" imageComplexity="VERY_SPARSE" altitudeIsAgl="TRUE" snapToGround="TRUE" snapToNormal="FALSE">
		<LibraryObject name="{989E5786-C3B3-4673-B0DD-534051DC4E8B}" scale="0.997248"/>
	</SceneryObject>
	<SceneryObject groupIndex="172" lat="27.76252963283752" lon="-82.63334031812525" alt="0.00000000000000" pitch="0.000000" bank="0.000000" heading="0.000000" imageComplexity="VERY_SPARSE" altitudeIsAgl="TRUE" snapToGround="TRUE" snapToNormal="FALSE">
		<CarParking>
			<Vertex lat="27.76241564531039" lon="-82.63374032952542"/>
			<Vertex lat="27.76242332113391" lon="-82.63294496370617"/>
			<Vertex lat="27.76264238658283" lon="-82.63294465014657"/>
			<Vertex lat="27.76263715212101" lon="-82.63373132279267"/>
		</CarParking>
	</SceneryObject>
	<SceneryObject groupIndex="56" lat="27.76266964100582" lon="-82.63214800679376" alt="0.00000000000000" pitch="0.000000" bank="0.000000" heading="0.000000" imageComplexity="VERY_SPARSE" altitudeIsAgl="TRUE" snapToGround="TRUE" snapToNormal="FALSE">
		<CarParking>
			<Vertex lat="27.76278024361329" lon="-82.63235459616534"/>
			<Vertex lat="27.76272079314791" lon="-82.63238156228303"/>
			<Vertex lat="27.76256153369360" lon="-82.63193963336016"/>
			<Vertex lat="27.76261599659106" lon="-82.63191624044649"/>
		</CarParking>
	</SceneryObject>
	<SceneryObject groupIndex="42" lat="27.76743591427354" lon="-82.62669109009042" alt="0.00000000000000" pitch="0.000000" bank="0.000000" heading="0.000000" imageComplexity="VERY_SPARSE" altitudeIsAgl="TRUE" snapToGround="TRUE" snapToNormal="FALSE">
		<CarParking>
			<Vertex lat="27.76746563825617" lon="-82.62672427729308"/>
			<Vertex lat="27.76739333588565" lon="-82.62668634495017"/>
			<Vertex lat="27.76740564781888" lon="-82.62665795177908"/>
			<Vertex lat="27.76747878047408" lon="-82.62669760928135"/>
		</CarParking>
	</SceneryObject>
	<SceneryObject displayName="CarParking (copy)" groupIndex="41" lat="27.76751476263890" lon="-82.62656007658346" alt="0.00000000000000" pitch="0.000000" bank="0.000000" heading="0.000000" imageComplexity="VERY_SPARSE" altitudeIsAgl="TRUE" snapToGround="TRUE" snapToNormal="FALSE">
		<CarParking>
			<Vertex lat="27.76754448675556" lon="-82.62659326329606"/>
			<Vertex lat="27.76747218438504" lon="-82.62655533095315"/>
			<Vertex lat="27.76748449631827" lon="-82.62652693778206"/>
			<Vertex lat="27.76755762897347" lon="-82.62656659528433"/>
		</CarParking>
	</SceneryObject>
	<Polygon groupIndex="165" altitude="-0.00028855167329">
		<Attribute name="UniqueGUID" guid="{359C73E8-06BE-4FB2-ABCB-EC942F7761D0}" type="GUID" value="{07C5E9C1-7E8B-41CE-976D-4D14E9AB3882}"/>
		<Attribute name="ExcludeDetectedBuildings" guid="{5C1A2387-1F07-47DF-A569-962CF6258E55}" type="UINT8" value="1"/>
		<Attribute name="ExcludeOSMBuildings" guid="{F3C2635D-9F2F-458F-8663-90B3837BED09}" type="UINT8" value="1"/>
		<Attribute name="ExcludeMSBuildings" guid="{F78A3074-8AD5-4B8B-92C4-C1C948BB7AA5}" type="UINT8" value="1"/>
		<Attribute name="ExcludeTIN" guid="{18B58CBF-AE02-4A19-8AA9-3809E8E73400}" type="UINT8" value="1"/>
		<Vertex lat="27.77314529640891" lon="-82.62260407757411"/>
		<Vertex lat="27.77316664292491" lon="-82.62163255225144"/>
		<Vertex lat="27.77392388686827" lon="-82.62169993057731"/>
		<Vertex lat="27.77421293528024" lon="-82.62352301039779"/>
	</Polygon>
	<Polygon groupIndex="30" altitude="3.22076582908630">
		<Attribute name="UniqueGUID" guid="{359C73E8-06BE-4FB2-ABCB-EC942F7761D0}" type="GUID" value="{8231E93D-E1EF-4EA5-B1ED-02998B4A3926}"/>
		<Attribute name="MaterialGUID" guid="{CD28EFD0-D3F0-43B6-9F88-4E4707344A04}" type="GUID" value="{052FEFB1-11E3-4951-B5C4-D93CE253FD9E}"/>
		<Attribute name="MaterialOpacity" guid="{591218A9-7B17-40CC-B38C-57A201A20C1D}" type="UINT8" value="253"/>
		<Attribute name="ExcludeTIN" guid="{18B58CBF-AE02-4A19-8AA9-3809E8E73400}" type="UINT8" value="1"/>
		<Vertex lat="27.76448226705170" lon="-82.63368716938322"/>
		<Vertex lat="27.76378695389532" lon="-82.63369124246614"/>
		<Vertex lat="27.76378656515007" lon="-82.63367251857667"/>
		<Vertex lat="27.76392801137783" lon="-82.63367114619734"/>
		<Vertex lat="27.76395520624841" lon="-82.63358979947903"/>
		<Vertex lat="27.76446215258432" lon="-82.63359797975967"/>
		<Vertex lat="27.76447098256738" lon="-82.63338338966493"/>
		<Vertex lat="27.76452020263346" lon="-82.63338322800907"/>
		<Vertex lat="27.76453523146885" lon="-82.63338816683560"/>
		<Vertex lat="27.76452851370995" lon="-82.63340240833070"/>
		<Vertex lat="27.76455617364021" lon="-82.63343368365945"/>
		<Vertex lat="27.76455856180136" lon="-82.63345016487213"/>
		<Vertex lat="27.76456222118563" lon="-82.63367604635253"/>
		<Vertex lat="27.76456302595903" lon="-82.63368630712831"/>
	</Polygon>
	<Polygon groupIndex="70" altitude="1.56588387489319">
		<Attribute name="UniqueGUID" guid="{359C73E8-06BE-4FB2-ABCB-EC942F7761D0}" type="GUID" value="{FE71F229-7396-4300-A74E-1DD848247380}"/>
		<Attribute name="MaterialGUID" guid="{CD28EFD0-D3F0-43B6-9F88-4E4707344A04}" type="GUID" value="{7BFBB0B3-69B6-412A-A316-AC50CAED3798}"/>
		<Vertex lat="27.76029019661212" lon="-82.62535451407288"/>
		<Vertex lat="27.76040804498263" lon="-82.62402621068848"/>
		<Vertex lat="27.76075563345764" lon="-82.62402528108703"/>
		<Vertex lat="27.76202429199100" lon="-82.62404547657830"/>
		<Vertex lat="27.76199483466229" lon="-82.62463683301030"/>
		<Vertex lat="27.76062671683557" lon="-82.62462364666817"/>
		<Vertex lat="27.76062212677204" lon="-82.62538849412955"/>
	</Polygon>
	<Polygon groupIndex="215" altitude="1.95105433464050">
		<Attribute name="UniqueGUID" guid="{359C73E8-06BE-4FB2-ABCB-EC942F7761D0}" type="GUID" value="{94FFEFA0-9332-4070-BD07-341EDEDB2A3E}"/>
		<Attribute name="MaterialGUID" guid="{CD28EFD0-D3F0-43B6-9F88-4E4707344A04}" type="GUID" value="{7BFBB0B3-69B6-412A-A316-AC50CAED3798}"/>
		<Vertex lat="27.76044566719547" lon="-82.62548563373652"/>
		<Vertex lat="27.76029766242506" lon="-82.62547541730754"/>
		<Vertex lat="27.76029147273395" lon="-82.62534666883469"/>
		<Vertex lat="27.76062248955814" lon="-82.62538657362320"/>
		<Vertex lat="27.76186967977934" lon="-82.62540200746517"/>
		<Vertex lat="27.76189231747330" lon="-82.62543211608353"/>
		<Vertex lat="27.76189000490150" lon="-82.62546518846634"/>
		<Vertex lat="27.76187096518030" lon="-82.62549178126947"/>
	</Polygon>
	<Polygon groupIndex="216" altitude="1.64293789863586">
		<Attribute name="UniqueGUID" guid="{359C73E8-06BE-4FB2-ABCB-EC942F7761D0}" type="GUID" value="{7734CE6C-2940-4970-9759-C1772342DC60}"/>
		<Attribute name="MaterialGUID" guid="{CD28EFD0-D3F0-43B6-9F88-4E4707344A04}" type="GUID" value="{7BFBB0B3-69B6-412A-A316-AC50CAED3798}"/>
		<Vertex lat="27.76077400864293" lon="-82.62525784260887"/>
		<Vertex lat="27.76077410706928" lon="-82.62524288629207"/>
		<Vertex lat="27.76074229889235" lon="-82.62524237075040"/>
		<Vertex lat="27.76073773789410" lon="-82.62521130604669"/>
		<Vertex lat="27.76074125972824" lon="-82.62515008919958"/>
		<Vertex lat="27.76075733339166" lon="-82.62511066491598"/>
		<Vertex lat="27.76077943170260" lon="-82.62511040602755"/>
		<Vertex lat="27.76186637219575" lon="-82.62511315480046"/>
		<Vertex lat="27.76188735657622" lon="-82.62513488673652"/>
		<Vertex lat="27.76189084372481" lon="-82.62517379215166"/>
		<Vertex lat="27.76189088474312" lon="-82.62522241230401"/>
		<Vertex lat="27.76186150614060" lon="-82.62524835640050"/>
		<Vertex lat="27.76183790239572" lon="-82.62525996455332"/>
		<Vertex lat="27.76182742774616" lon="-82.62527109281704"/>
		<Vertex lat="27.76116276466412" lon="-82.62526216680425"/>
	</Polygon>
	<Polygon groupIndex="178" altitude="3.24422335624695">
		<Attribute name="UniqueGUID" guid="{359C73E8-06BE-4FB2-ABCB-EC942F7761D0}" type="GUID" value="{B5F26DB4-5D36-4045-A925-F647E4610E05}"/>
		<Attribute name="MaterialGUID" guid="{CD28EFD0-D3F0-43B6-9F88-4E4707344A04}" type="GUID" value="{7BFBB0B3-69B6-412A-A316-AC50CAED3798}"/>
		<Vertex lat="27.76251639202905" lon="-82.63018512428037"/>
		<Vertex lat="27.76251785572157" lon="-82.63008719511760"/>
		<Vertex lat="27.76256769211768" lon="-82.63008715943390"/>
		<Vertex lat="27.76257124884243" lon="-82.63009264884948"/>
		<Vertex lat="27.76256961712582" lon="-82.63018630214764"/>
	</Polygon>
	<Polygon groupIndex="169" altitude="3.47868204116821">
		<Attribute name="UniqueGUID" guid="{359C73E8-06BE-4FB2-ABCB-EC942F7761D0}" type="GUID" value="{2C7B69A1-AB78-4E48-B365-87C0105D258F}"/>
		<Attribute name="MaterialGUID" guid="{CD28EFD0-D3F0-43B6-9F88-4E4707344A04}" type="GUID" value="{7BFBB0B3-69B6-412A-A316-AC50CAED3798}"/>
		<Vertex lat="27.76249854659953" lon="-82.63100007409054"/>
		<Vertex lat="27.76250427851610" lon="-82.63098622462404"/>
		<Vertex lat="27.76252113343077" lon="-82.63098414049344"/>
		<Vertex lat="27.76254681691428" lon="-82.63097805903543"/>
		<Vertex lat="27.76256138370602" lon="-82.63096319742330"/>
		<Vertex lat="27.76257461392704" lon="-82.63094983361020"/>
		<Vertex lat="27.76258209279696" lon="-82.63093109984139"/>
		<Vertex lat="27.76258382503910" lon="-82.63090796441544"/>
		<Vertex lat="27.76259131265412" lon="-82.63089662167204"/>
		<Vertex lat="27.76265017751722" lon="-82.63089747580243"/>
		<Vertex lat="27.76264799906480" lon="-82.63100793610242"/>
	</Polygon>
	<Polygon groupIndex="54" altitude="3.89275670051575">
		<Attribute name="UniqueGUID" guid="{359C73E8-06BE-4FB2-ABCB-EC942F7761D0}" type="GUID" value="{76F9CA99-126C-4A9E-9256-948A10766ACD}"/>
		<Attribute name="MaterialGUID" guid="{CD28EFD0-D3F0-43B6-9F88-4E4707344A04}" type="GUID" value="{141FA97F-4B4F-477E-848D-989CC534031B}"/>
		<Vertex lat="27.76282403901365" lon="-82.63239013837399"/>
		<Vertex lat="27.76247015684554" lon="-82.63238710921688"/>
		<Vertex lat="27.76247096205817" lon="-82.63233204498530"/>
		<Vertex lat="27.76252734435128" lon="-82.63233312555627"/>
		<Vertex lat="27.76253350891778" lon="-82.63189326175508"/>
		<Vertex lat="27.76264210070760" lon="-82.63188888143145"/>
		<Vertex lat="27.76283030884337" lon="-82.63238755583599"/>
	</Polygon>
	<Polygon displayName="Polygon  ( texture ) (copy)" groupIndex="237" altitude="2.84266448020935">
		<Attribute name="UniqueGUID" guid="{359C73E8-06BE-4FB2-ABCB-EC942F7761D0}" type="GUID" value="{98A03947-438A-4FA6-BF64-A8EE0CC0FA26}"/>
		<Attribute name="MaterialGUID" guid="{CD28EFD0-D3F0-43B6-9F88-4E4707344A04}" type="GUID" value="{7BFBB0B3-69B6-412A-A316-AC50CAED3798}"/>
		<Vertex lat="27.76270613093967" lon="-82.62888559258050"/>
		<Vertex lat="27.76270270101188" lon="-82.62795861433287"/>
		<Vertex lat="27.76284051220684" lon="-82.62795473109040"/>
		<Vertex lat="27.76283830526499" lon="-82.62888412226731"/>
	</Polygon>
	<Polygon groupIndex="238" altitude="2.84090304374695">
		<Attribute name="UniqueGUID" guid="{359C73E8-06BE-4FB2-ABCB-EC942F7761D0}" type="GUID" value="{91D8D64D-48DA-4450-92BD-FB3E8C274D0A}"/>
		<Attribute name="MaterialGUID" guid="{CD28EFD0-D3F0-43B6-9F88-4E4707344A04}" type="GUID" value="{7BFBB0B3-69B6-412A-A316-AC50CAED3798}"/>
		<Vertex lat="27.76270271027065" lon="-82.62958357331519"/>
		<Vertex lat="27.76270922880303" lon="-82.62894635256711"/>
		<Vertex lat="27.76283919248202" lon="-82.62894928760475"/>
		<Vertex lat="27.76283900289639" lon="-82.62958384019961"/>
	</Polygon>
	<Polygon groupIndex="174" altitude="3.86309504508972">
		<Attribute name="UniqueGUID" guid="{359C73E8-06BE-4FB2-ABCB-EC942F7761D0}" type="GUID" value="{A9F9D762-990D-450F-B967-E8D8DE0C5AA6}"/>
		<Attribute name="MaterialGUID" guid="{CD28EFD0-D3F0-43B6-9F88-4E4707344A04}" type="GUID" value="{7BFBB0B3-69B6-412A-A316-AC50CAED3798}"/>
		<Vertex lat="27.76264321896229" lon="-82.63375647600355"/>
		<Vertex lat="27.76265032500934" lon="-82.63357307058125"/>
		<Vertex lat="27.76290973874786" lon="-82.63355774079551"/>
		<Vertex lat="27.76292624122113" lon="-82.63356359677425"/>
		<Vertex lat="27.76295832592371" lon="-82.63359233449718"/>
		<Vertex lat="27.76305047085527" lon="-82.63376082691188"/>
	</Polygon>
	<Polygon groupIndex="211" altitude="2.81705403327942">
		<Attribute name="UniqueGUID" guid="{359C73E8-06BE-4FB2-ABCB-EC942F7761D0}" type="GUID" value="{8CFCEA44-C047-4BCD-880D-C970018D795D}"/>
		<Attribute name="MaterialGUID" guid="{CD28EFD0-D3F0-43B6-9F88-4E4707344A04}" type="GUID" value="{7BFBB0B3-69B6-412A-A316-AC50CAED3798}"/>
		<Vertex lat="27.76413030128842" lon="-82.62550342126711"/>
		<Vertex lat="27.76203337529469" lon="-82.62548810804451"/>
		<Vertex lat="27.76202987536381" lon="-82.62543169102916"/>
		<Vertex lat="27.76205587421878" lon="-82.62540840570192"/>
		<Vertex lat="27.76413273805269" lon="-82.62541470621328"/>
	</Polygon>
	<Polygon displayName="Polygon  ( texture ) (copy 3)" groupIndex="125" altitude="3.17690348625183">
		<Attribute name="UniqueGUID" guid="{359C73E8-06BE-4FB2-ABCB-EC942F7761D0}" type="GUID" value="{1EB82449-8013-4F87-8631-6B0F9DF0653B}"/>
		<Attribute name="MaterialGUID" guid="{CD28EFD0-D3F0-43B6-9F88-4E4707344A04}" type="GUID" value="{7BFBB0B3-69B6-412A-A316-AC50CAED3798}"/>
		<Vertex lat="27.76291451633526" lon="-82.62819953067138"/>
		<Vertex lat="27.76290436500637" lon="-82.62818996799280"/>
		<Vertex lat="27.76289963272685" lon="-82.62817507441163"/>
		<Vertex lat="27.76289964056163" lon="-82.62815904064639"/>
		<Vertex lat="27.76290416098907" lon="-82.62814583004236"/>
		<Vertex lat="27.76292403300113" lon="-82.62813853058567"/>
		<Vertex lat="27.76297286411407" lon="-82.62814155106207"/>
		<Vertex lat="27.76297178841178" lon="-82.62820010384007"/>
	</Polygon>
	<Polygon displayName="Polygon  ( texture ) (copy 2)" groupIndex="124" altitude="3.17668247222900">
		<Attribute name="UniqueGUID" guid="{359C73E8-06BE-4FB2-ABCB-EC942F7761D0}" type="GUID" value="{CDB150A5-AA13-4254-96FA-CC276C56D8BA}"/>
		<Attribute name="MaterialGUID" guid="{CD28EFD0-D3F0-43B6-9F88-4E4707344A04}" type="GUID" value="{7BFBB0B3-69B6-412A-A316-AC50CAED3798}"/>
		<Vertex lat="27.76291560596413" lon="-82.62832530410779"/>
		<Vertex lat="27.76290545463523" lon="-82.62831574142920"/>
		<Vertex lat="27.76290072235572" lon="-82.62830084784804"/>
		<Vertex lat="27.76290073019050" lon="-82.62828481408280"/>
		<Vertex lat="27.76291158712726" lon="-82.62827189820629"/>
		<Vertex lat="27.76292512262999" lon="-82.62826430402208"/>
		<Vertex lat="27.76297395374293" lon="-82.62826732449848"/>
		<Vertex lat="27.76297261398933" lon="-82.62832884573271"/>
	</Polygon>
	<Polygon displayName="Polygon  ( texture ) (copy 1)" groupIndex="123" altitude="3.17643809318542">
		<Attribute name="UniqueGUID" guid="{359C73E8-06BE-4FB2-ABCB-EC942F7761D0}" type="GUID" value="{68BE8930-00EA-48F4-BFF4-29CA5C65D3B9}"/>
		<Attribute name="MaterialGUID" guid="{CD28EFD0-D3F0-43B6-9F88-4E4707344A04}" type="GUID" value="{7BFBB0B3-69B6-412A-A316-AC50CAED3798}"/>
		<Vertex lat="27.76291609284977" lon="-82.62845967789050"/>
		<Vertex lat="27.76290594152087" lon="-82.62845011521192"/>
		<Vertex lat="27.76290120924136" lon="-82.62843522163075"/>
		<Vertex lat="27.76290121707614" lon="-82.62841918786552"/>
		<Vertex lat="27.76290890587045" lon="-82.62840508444690"/>
		<Vertex lat="27.76292560951563" lon="-82.62839867780480"/>
		<Vertex lat="27.76297444062857" lon="-82.62840169828119"/>
		<Vertex lat="27.76297362901530" lon="-82.62845817265887"/>
	</Polygon>
	<Polygon displayName="Polygon  ( texture ) (copy)" groupIndex="122" altitude="3.17620658874512">
		<Attribute name="UniqueGUID" guid="{359C73E8-06BE-4FB2-ABCB-EC942F7761D0}" type="GUID" value="{A1D1EB8C-B34C-4B7D-B051-03ABFDC4A73E}"/>
		<Attribute name="MaterialGUID" guid="{CD28EFD0-D3F0-43B6-9F88-4E4707344A04}" type="GUID" value="{7BFBB0B3-69B6-412A-A316-AC50CAED3798}"/>
		<Vertex lat="27.76291575295597" lon="-82.62858635816649"/>
		<Vertex lat="27.76290560162707" lon="-82.62857679548790"/>
		<Vertex lat="27.76290086934755" lon="-82.62856190190674"/>
		<Vertex lat="27.76290087718234" lon="-82.62854586814150"/>
		<Vertex lat="27.76291173411909" lon="-82.62853295226499"/>
		<Vertex lat="27.76292526962183" lon="-82.62852535808078"/>
		<Vertex lat="27.76297410073477" lon="-82.62852837855718"/>
		<Vertex lat="27.76297328912149" lon="-82.62858485293485"/>
	</Polygon>
	<Polygon displayName="Polygon  ( texture ) (copy)" groupIndex="121" altitude="3.17436861991882">
		<Attribute name="UniqueGUID" guid="{359C73E8-06BE-4FB2-ABCB-EC942F7761D0}" type="GUID" value="{362A071C-9E1E-4CE9-8F10-63658B2A7F1B}"/>
		<Attribute name="MaterialGUID" guid="{CD28EFD0-D3F0-43B6-9F88-4E4707344A04}" type="GUID" value="{7BFBB0B3-69B6-412A-A316-AC50CAED3798}"/>
		<Vertex lat="27.76293245541351" lon="-82.62933464355699"/>
		<Vertex lat="27.76292230408462" lon="-82.62932508087840"/>
		<Vertex lat="27.76291757180510" lon="-82.62931018729724"/>
		<Vertex lat="27.76291757963988" lon="-82.62929415353200"/>
		<Vertex lat="27.76292526843420" lon="-82.62928005011338"/>
		<Vertex lat="27.76294197207938" lon="-82.62927364347128"/>
		<Vertex lat="27.76299080319232" lon="-82.62927666394768"/>
		<Vertex lat="27.76298999157904" lon="-82.62933313832535"/>
	</Polygon>
	<Polygon groupIndex="104" altitude="3.17413711547852">
		<Attribute name="UniqueGUID" guid="{359C73E8-06BE-4FB2-ABCB-EC942F7761D0}" type="GUID" value="{4D71B84F-B9CB-41AA-959C-98AD54B41B4B}"/>
		<Attribute name="MaterialGUID" guid="{CD28EFD0-D3F0-43B6-9F88-4E4707344A04}" type="GUID" value="{7BFBB0B3-69B6-412A-A316-AC50CAED3798}"/>
		<Vertex lat="27.76293211551971" lon="-82.62946132383297"/>
		<Vertex lat="27.76292196419082" lon="-82.62945176115439"/>
		<Vertex lat="27.76291723191130" lon="-82.62943686757322"/>
		<Vertex lat="27.76291723974608" lon="-82.62942083380798"/>
		<Vertex lat="27.76292809668284" lon="-82.62940791793147"/>
		<Vertex lat="27.76294163218558" lon="-82.62940032374726"/>
		<Vertex lat="27.76299046329851" lon="-82.62940334422366"/>
		<Vertex lat="27.76298965168524" lon="-82.62945981860133"/>
	</Polygon>
	<Polygon displayName="Polygon  ( texture ) (copy 1)" groupIndex="103" altitude="3.17459177970886">
		<Attribute name="UniqueGUID" guid="{359C73E8-06BE-4FB2-ABCB-EC942F7761D0}" type="GUID" value="{18D32FAE-EDAE-48CB-8223-D2C21AF44095}"/>
		<Attribute name="MaterialGUID" guid="{CD28EFD0-D3F0-43B6-9F88-4E4707344A04}" type="GUID" value="{7BFBB0B3-69B6-412A-A316-AC50CAED3798}"/>
		<Vertex lat="27.76293381622657" lon="-82.62921332836727"/>
		<Vertex lat="27.76292366489768" lon="-82.62920376568869"/>
		<Vertex lat="27.76291893261816" lon="-82.62918887210752"/>
		<Vertex lat="27.76291894045294" lon="-82.62917283834228"/>
		<Vertex lat="27.76292979738970" lon="-82.62915992246577"/>
		<Vertex lat="27.76294333289244" lon="-82.62915232828156"/>
		<Vertex lat="27.76299216400538" lon="-82.62915534875796"/>
		<Vertex lat="27.76299082425177" lon="-82.62921686999219"/>
	</Polygon>
	<Polygon displayName="Polygon  ( texture ) (copy 2)" groupIndex="113" altitude="3.17481422424316">
		<Attribute name="UniqueGUID" guid="{359C73E8-06BE-4FB2-ABCB-EC942F7761D0}" type="GUID" value="{A25C6E9D-EDB9-4D4A-B4E9-DE3BE1DD6184}"/>
		<Attribute name="MaterialGUID" guid="{CD28EFD0-D3F0-43B6-9F88-4E4707344A04}" type="GUID" value="{7BFBB0B3-69B6-412A-A316-AC50CAED3798}"/>
		<Vertex lat="27.76293483684005" lon="-82.62908933580241"/>
		<Vertex lat="27.76292468551116" lon="-82.62907977312382"/>
		<Vertex lat="27.76291995323164" lon="-82.62906487954265"/>
		<Vertex lat="27.76291996106642" lon="-82.62904884577742"/>
		<Vertex lat="27.76292448149386" lon="-82.62903563517338"/>
		<Vertex lat="27.76294435350592" lon="-82.62902833571670"/>
		<Vertex lat="27.76299318461885" lon="-82.62903135619310"/>
		<Vertex lat="27.76299210891656" lon="-82.62908990897110"/>
	</Polygon>
	<Polygon groupIndex="239" altitude="3.02153062820435">
		<Attribute name="UniqueGUID" guid="{359C73E8-06BE-4FB2-ABCB-EC942F7761D0}" type="GUID" value="{240100AA-C988-48F3-AC14-88D69CBCC31B}"/>
		<Attribute name="MaterialGUID" guid="{CD28EFD0-D3F0-43B6-9F88-4E4707344A04}" type="GUID" value="{7BFBB0B3-69B6-412A-A316-AC50CAED3798}"/>
		<Vertex lat="27.76293380319167" lon="-82.62806860203104"/>
		<Vertex lat="27.76293447676017" lon="-82.62797173268082"/>
		<Vertex lat="27.76297681566402" lon="-82.62797262880368"/>
		<Vertex lat="27.76297470077682" lon="-82.62806960667497"/>
	</Polygon>
	<Polygon groupIndex="37" altitude="2.99783682823181">
		<Attribute name="UniqueGUID" guid="{359C73E8-06BE-4FB2-ABCB-EC942F7761D0}" type="GUID" value="{B0EB2E94-9CB0-4697-9946-D208C79B802B}"/>
		<Attribute name="MaterialGUID" guid="{CD28EFD0-D3F0-43B6-9F88-4E4707344A04}" type="GUID" value="{7BFBB0B3-69B6-412A-A316-AC50CAED3798}"/>
		<Vertex lat="27.76270221827226" lon="-82.62795629523475"/>
		<Vertex lat="27.76270037618377" lon="-82.62787719973184"/>
		<Vertex lat="27.76317078664474" lon="-82.62787803120477"/>
		<Vertex lat="27.76319070530122" lon="-82.62789101994325"/>
		<Vertex lat="27.76320422214702" lon="-82.62791069422113"/>
		<Vertex lat="27.76320690988926" lon="-82.62795442956667"/>
	</Polygon>
	<Polygon groupIndex="93" altitude="3.15959906578064">
		<Attribute name="UniqueGUID" guid="{359C73E8-06BE-4FB2-ABCB-EC942F7761D0}" type="GUID" value="{77AE10B4-CDCB-457C-B38F-67291057E76E}"/>
		<Attribute name="MaterialGUID" guid="{CD28EFD0-D3F0-43B6-9F88-4E4707344A04}" type="GUID" value="{7BFBB0B3-69B6-412A-A316-AC50CAED3798}"/>
		<Vertex lat="27.76313097610862" lon="-82.62874515458006"/>
		<Vertex lat="27.76295902801599" lon="-82.62874601122414"/>
		<Vertex lat="27.76294690060817" lon="-82.62874048380459"/>
		<Vertex lat="27.76293823828522" lon="-82.62872946764406"/>
		<Vertex lat="27.76293361964983" lon="-82.62865331283888"/>
		<Vertex lat="27.76298478193517" lon="-82.62865479861394"/>
		<Vertex lat="27.76298756274942" lon="-82.62867904538386"/>
		<Vertex lat="27.76310845288022" lon="-82.62868224077820"/>
		<Vertex lat="27.76310895605465" lon="-82.62858945153241"/>
		<Vertex lat="27.76317545267772" lon="-82.62859034975256"/>
		<Vertex lat="27.76317060201439" lon="-82.62872495753524"/>
		<Vertex lat="27.76315097286070" lon="-82.62874443477685"/>
	</Polygon>
	<Polygon displayName="Polygon  ( texture ) (copy 1)" groupIndex="92" altitude="3.72330641746521">
		<Attribute name="UniqueGUID" guid="{359C73E8-06BE-4FB2-ABCB-EC942F7761D0}" type="GUID" value="{E3BEB7A2-C479-495B-A3BA-BD6F28C124C6}"/>
		<Attribute name="MaterialGUID" guid="{CD28EFD0-D3F0-43B6-9F88-4E4707344A04}" type="GUID" value="{7BFBB0B3-69B6-412A-A316-AC50CAED3798}"/>
		<Vertex lat="27.76312262030645" lon="-82.62903493590032"/>
		<Vertex lat="27.76299025077881" lon="-82.62896814587536"/>
		<Vertex lat="27.76294308360833" lon="-82.62896728185196"/>
		<Vertex lat="27.76292693699939" lon="-82.62895469692504"/>
		<Vertex lat="27.76292353388800" lon="-82.62893925658919"/>
		<Vertex lat="27.76292240345312" lon="-82.62890382552906"/>
		<Vertex lat="27.76295537598156" lon="-82.62885863567458"/>
		<Vertex lat="27.76317954343306" lon="-82.62885487376271"/>
		<Vertex lat="27.76318755188532" lon="-82.62886604781841"/>
		<Vertex lat="27.76319825259371" lon="-82.62890403641542"/>
		<Vertex lat="27.76319691514724" lon="-82.62902256772819"/>
		<Vertex lat="27.76318599351787" lon="-82.62903435466775"/>
	</Polygon>
	<Polygon groupIndex="217" altitude="2.33152318000793">
		<Attribute name="UniqueGUID" guid="{359C73E8-06BE-4FB2-ABCB-EC942F7761D0}" type="GUID" value="{3F287FAD-7EE4-4E96-81B9-38C766051352}"/>
		<Attribute name="MaterialGUID" guid="{CD28EFD0-D3F0-43B6-9F88-4E4707344A04}" type="GUID" value="{7BFBB0B3-69B6-412A-A316-AC50CAED3798}"/>
		<Vertex lat="27.76310273214029" lon="-82.62527768122672"/>
		<Vertex lat="27.76209536358812" lon="-82.62526796061769"/>
		<Vertex lat="27.76205969940600" lon="-82.62524943864308"/>
		<Vertex lat="27.76203151077938" lon="-82.62521445681448"/>
		<Vertex lat="27.76203229674887" lon="-82.62515621787466"/>
		<Vertex lat="27.76204317971741" lon="-82.62512794321499"/>
		<Vertex lat="27.76205855883991" lon="-82.62511503144738"/>
		<Vertex lat="27.76286404528424" lon="-82.62511658432027"/>
		<Vertex lat="27.76408614997901" lon="-82.62512237752740"/>
		<Vertex lat="27.76411516243334" lon="-82.62512841000576"/>
		<Vertex lat="27.76415107879416" lon="-82.62515087064526"/>
		<Vertex lat="27.76417552338347" lon="-82.62518620304992"/>
		<Vertex lat="27.76419103309498" lon="-82.62524932936485"/>
		<Vertex lat="27.76413875205737" lon="-82.62528463510813"/>
	</Polygon>
	<Polygon groupIndex="246" altitude="3.12684226036072">
		<Attribute name="UniqueGUID" guid="{359C73E8-06BE-4FB2-ABCB-EC942F7761D0}" type="GUID" value="{C5601583-FC1D-4528-8273-433EDC1AECF8}"/>
		<Attribute name="MaterialGUID" guid="{CD28EFD0-D3F0-43B6-9F88-4E4707344A04}" type="GUID" value="{7BFBB0B3-69B6-412A-A316-AC50CAED3798}"/>
		<Vertex lat="27.76313144884180" lon="-82.62852779079265"/>
		<Vertex lat="27.76313283040204" lon="-82.62846080484255"/>
		<Vertex lat="27.76317606675214" lon="-82.62845997232868"/>
		<Vertex lat="27.76317526576717" lon="-82.62852774594359"/>
	</Polygon>
	<Polygon displayName="Polygon  ( texture ) (copy)" groupIndex="247" altitude="3.12708377838135">
		<Attribute name="UniqueGUID" guid="{359C73E8-06BE-4FB2-ABCB-EC942F7761D0}" type="GUID" value="{E8A87AF1-BA23-4778-957D-738C3834B81A}"/>
		<Attribute name="MaterialGUID" guid="{CD28EFD0-D3F0-43B6-9F88-4E4707344A04}" type="GUID" value="{7BFBB0B3-69B6-412A-A316-AC50CAED3798}"/>
		<Vertex lat="27.76313243721368" lon="-82.62839566131825"/>
		<Vertex lat="27.76313381877391" lon="-82.62832867536815"/>
		<Vertex lat="27.76317705512402" lon="-82.62832784285429"/>
		<Vertex lat="27.76317625413905" lon="-82.62839561646919"/>
	</Polygon>
	<Polygon displayName="Polygon  ( texture ) (copy 1)" groupIndex="248" altitude="3.12731432914734">
		<Attribute name="UniqueGUID" guid="{359C73E8-06BE-4FB2-ABCB-EC942F7761D0}" type="GUID" value="{3C2723BB-3BAC-4A49-B8F1-D44F4CDE972B}"/>
		<Attribute name="MaterialGUID" guid="{CD28EFD0-D3F0-43B6-9F88-4E4707344A04}" type="GUID" value="{7BFBB0B3-69B6-412A-A316-AC50CAED3798}"/>
		<Vertex lat="27.76313359032579" lon="-82.62826871522948"/>
		<Vertex lat="27.76313497188602" lon="-82.62820172927938"/>
		<Vertex lat="27.76317820823613" lon="-82.62820089676552"/>
		<Vertex lat="27.76317740725116" lon="-82.62826867038042"/>
	</Polygon>
	<Polygon displayName="Polygon  ( texture ) (copy 2)" groupIndex="249" altitude="3.12754964828491">
		<Attribute name="UniqueGUID" guid="{359C73E8-06BE-4FB2-ABCB-EC942F7761D0}" type="GUID" value="{8084058D-8259-4A0D-9EC8-0E873FB8106D}"/>
		<Attribute name="MaterialGUID" guid="{CD28EFD0-D3F0-43B6-9F88-4E4707344A04}" type="GUID" value="{7BFBB0B3-69B6-412A-A316-AC50CAED3798}"/>
		<Vertex lat="27.76313375885276" lon="-82.62813973647850"/>
		<Vertex lat="27.76313514041299" lon="-82.62807275052840"/>
		<Vertex lat="27.76317837676310" lon="-82.62807191801454"/>
		<Vertex lat="27.76317757577812" lon="-82.62813969162944"/>
	</Polygon>
	<Polygon displayName="Polygon  ( texture ) (copy 4)" groupIndex="112" altitude="3.17479157447815">
		<Attribute name="UniqueGUID" guid="{359C73E8-06BE-4FB2-ABCB-EC942F7761D0}" type="GUID" value="{745599BC-A0C4-41A1-AA0C-9F748F40A072}"/>
		<Attribute name="MaterialGUID" guid="{CD28EFD0-D3F0-43B6-9F88-4E4707344A04}" type="GUID" value="{7BFBB0B3-69B6-412A-A316-AC50CAED3798}"/>
		<Vertex lat="27.76318421830958" lon="-82.62921418421759"/>
		<Vertex lat="27.76319449956254" lon="-82.62922356984993"/>
		<Vertex lat="27.76319943550681" lon="-82.62923837966464"/>
		<Vertex lat="27.76319964753036" lon="-82.62925441167030"/>
		<Vertex lat="27.76318896898370" lon="-82.62926751415203"/>
		<Vertex lat="27.76317553921712" lon="-82.62927534198222"/>
		<Vertex lat="27.76312667248179" lon="-82.62927316801768"/>
		<Vertex lat="27.76312670961228" lon="-82.62921668632666"/>
	</Polygon>
	<Polygon displayName="Polygon  ( texture ) (copy 5)" groupIndex="111" altitude="3.17459058761597">
		<Attribute name="UniqueGUID" guid="{359C73E8-06BE-4FB2-ABCB-EC942F7761D0}" type="GUID" value="{527CDE6F-4566-409B-AB20-88484BC2401C}"/>
		<Attribute name="MaterialGUID" guid="{CD28EFD0-D3F0-43B6-9F88-4E4707344A04}" type="GUID" value="{7BFBB0B3-69B6-412A-A316-AC50CAED3798}"/>
		<Vertex lat="27.76318490048909" lon="-82.62934007006358"/>
		<Vertex lat="27.76319518174205" lon="-82.62934945569592"/>
		<Vertex lat="27.76320011768631" lon="-82.62936426551063"/>
		<Vertex lat="27.76320032970987" lon="-82.62938029751629"/>
		<Vertex lat="27.76318965116321" lon="-82.62939339999802"/>
		<Vertex lat="27.76317622139663" lon="-82.62940122782821"/>
		<Vertex lat="27.76312735466129" lon="-82.62939905386366"/>
		<Vertex lat="27.76312739179179" lon="-82.62934257217265"/>
	</Polygon>
	<Polygon displayName="Polygon  ( texture ) (copy 3)" groupIndex="109" altitude="3.17499494552612">
		<Attribute name="UniqueGUID" guid="{359C73E8-06BE-4FB2-ABCB-EC942F7761D0}" type="GUID" value="{2F856313-9949-4D14-B8EC-10B113AD4D88}"/>
		<Attribute name="MaterialGUID" guid="{CD28EFD0-D3F0-43B6-9F88-4E4707344A04}" type="GUID" value="{7BFBB0B3-69B6-412A-A316-AC50CAED3798}"/>
		<Vertex lat="27.76318830124065" lon="-82.62909173810166"/>
		<Vertex lat="27.76319858249362" lon="-82.62910112373400"/>
		<Vertex lat="27.76320351843788" lon="-82.62911593354872"/>
		<Vertex lat="27.76320373046143" lon="-82.62913196555438"/>
		<Vertex lat="27.76319305191477" lon="-82.62914506803611"/>
		<Vertex lat="27.76317962214819" lon="-82.62915289586630"/>
		<Vertex lat="27.76313075541286" lon="-82.62915072190175"/>
		<Vertex lat="27.76313079254335" lon="-82.62909424021073"/>
	</Polygon>
	<Polygon groupIndex="205" altitude="3.24704933166504">
		<Attribute name="UniqueGUID" guid="{359C73E8-06BE-4FB2-ABCB-EC942F7761D0}" type="GUID" value="{7C4037F5-83A0-4B13-B2C8-F2270B677D8F}"/>
		<Attribute name="MaterialGUID" guid="{CD28EFD0-D3F0-43B6-9F88-4E4707344A04}" type="GUID" value="{7BFBB0B3-69B6-412A-A316-AC50CAED3798}"/>
		<Vertex lat="27.76323718429868" lon="-82.63177303514854"/>
		<Vertex lat="27.76317950492443" lon="-82.63177355043203"/>
		<Vertex lat="27.76318474182273" lon="-82.63172221542838"/>
		<Vertex lat="27.76318326031468" lon="-82.63165084094462"/>
		<Vertex lat="27.76317508453651" lon="-82.63157729744465"/>
		<Vertex lat="27.76317251710279" lon="-82.63154456945340"/>
		<Vertex lat="27.76317030205864" lon="-82.63150052357796"/>
		<Vertex lat="27.76316692067233" lon="-82.63144426908251"/>
		<Vertex lat="27.76316887710881" lon="-82.63139403338185"/>
		<Vertex lat="27.76317321087889" lon="-82.63136863151801"/>
		<Vertex lat="27.76319146989877" lon="-82.63135613464270"/>
		<Vertex lat="27.76320057717240" lon="-82.63135009763819"/>
		<Vertex lat="27.76321935218950" lon="-82.63134416037160"/>
		<Vertex lat="27.76343814515548" lon="-82.63134503741931"/>
	</Polygon>
	<Polygon groupIndex="179" altitude="4.27366304397583">
		<Attribute name="UniqueGUID" guid="{359C73E8-06BE-4FB2-ABCB-EC942F7761D0}" type="GUID" value="{B9AE6FC1-FF62-4799-A0C2-8E5A9128B1A8}"/>
		<Attribute name="MaterialGUID" guid="{CD28EFD0-D3F0-43B6-9F88-4E4707344A04}" type="GUID" value="{7BFBB0B3-69B6-412A-A316-AC50CAED3798}"/>
		<Vertex lat="27.76325035982478" lon="-82.63111573024486"/>
		<Vertex lat="27.76325581840988" lon="-82.63111992160030"/>
		<Vertex lat="27.76326012886866" lon="-82.63114221531707"/>
		<Vertex lat="27.76325452152665" lon="-82.63116886761048"/>
		<Vertex lat="27.76323985922589" lon="-82.63118193447124"/>
		<Vertex lat="27.76322301673601" lon="-82.63118579434736"/>
		<Vertex lat="27.76320188089035" lon="-82.63118480727142"/>
		<Vertex lat="27.76318071647304" lon="-82.63117557408073"/>
		<Vertex lat="27.76317338057971" lon="-82.63115230899031"/>
		<Vertex lat="27.76317194133456" lon="-82.63111572842496"/>
	</Polygon>
	<Polygon displayName="Polygon  ( texture ) (copy 2)" groupIndex="108" altitude="3.17691540718079">
		<Attribute name="UniqueGUID" guid="{359C73E8-06BE-4FB2-ABCB-EC942F7761D0}" type="GUID" value="{A8FD716B-3D55-4E47-873A-8DDBDF1ED651}"/>
		<Attribute name="MaterialGUID" guid="{CD28EFD0-D3F0-43B6-9F88-4E4707344A04}" type="GUID" value="{7BFBB0B3-69B6-412A-A316-AC50CAED3798}"/>
		<Vertex lat="27.76326693021049" lon="-82.62845909013069"/>
		<Vertex lat="27.76325677888160" lon="-82.62844952745210"/>
		<Vertex lat="27.76325204660208" lon="-82.62843463387094"/>
		<Vertex lat="27.76325205443686" lon="-82.62841860010570"/>
		<Vertex lat="27.76325974323118" lon="-82.62840449668708"/>
		<Vertex lat="27.76327644687636" lon="-82.62839809004498"/>
		<Vertex lat="27.76332527798930" lon="-82.62840111052138"/>
		<Vertex lat="27.76332446637602" lon="-82.62845758489905"/>
	</Polygon>
	<Polygon displayName="Polygon  ( texture ) (copy 1)" groupIndex="107" altitude="3.17668390274048">
		<Attribute name="UniqueGUID" guid="{359C73E8-06BE-4FB2-ABCB-EC942F7761D0}" type="GUID" value="{E82EBC3A-16A3-449E-9785-83FB49BBEEC5}"/>
		<Attribute name="MaterialGUID" guid="{CD28EFD0-D3F0-43B6-9F88-4E4707344A04}" type="GUID" value="{7BFBB0B3-69B6-412A-A316-AC50CAED3798}"/>
		<Vertex lat="27.76326659031669" lon="-82.62858577040667"/>
		<Vertex lat="27.76325643898780" lon="-82.62857620772809"/>
		<Vertex lat="27.76325170670828" lon="-82.62856131414692"/>
		<Vertex lat="27.76325171454306" lon="-82.62854528038169"/>
		<Vertex lat="27.76326257147982" lon="-82.62853236450518"/>
		<Vertex lat="27.76327610698256" lon="-82.62852477032096"/>
		<Vertex lat="27.76332493809549" lon="-82.62852779079736"/>
		<Vertex lat="27.76332412648222" lon="-82.62858426517504"/>
	</Polygon>
	<Polygon displayName="Polygon  ( texture ) (copy 3)" groupIndex="106" altitude="3.17715072631836">
		<Attribute name="UniqueGUID" guid="{359C73E8-06BE-4FB2-ABCB-EC942F7761D0}" type="GUID" value="{92569130-1FA8-4480-B1E5-5BCC9523610D}"/>
		<Attribute name="MaterialGUID" guid="{CD28EFD0-D3F0-43B6-9F88-4E4707344A04}" type="GUID" value="{7BFBB0B3-69B6-412A-A316-AC50CAED3798}"/>
		<Vertex lat="27.76326802683686" lon="-82.62832916776190"/>
		<Vertex lat="27.76325787550797" lon="-82.62831960508332"/>
		<Vertex lat="27.76325314322845" lon="-82.62830471150215"/>
		<Vertex lat="27.76325315106323" lon="-82.62828867773692"/>
		<Vertex lat="27.76326400799999" lon="-82.62827576186041"/>
		<Vertex lat="27.76327754350273" lon="-82.62826816767620"/>
		<Vertex lat="27.76332637461567" lon="-82.62827118815260"/>
		<Vertex lat="27.76332503486206" lon="-82.62833270938683"/>
	</Polygon>
	<Polygon displayName="Polygon  ( texture ) (copy 4)" groupIndex="105" altitude="3.17738366127014">
		<Attribute name="UniqueGUID" guid="{359C73E8-06BE-4FB2-ABCB-EC942F7761D0}" type="GUID" value="{832E17E5-436E-416A-8DBE-10666AF9A96D}"/>
		<Attribute name="MaterialGUID" guid="{CD28EFD0-D3F0-43B6-9F88-4E4707344A04}" type="GUID" value="{7BFBB0B3-69B6-412A-A316-AC50CAED3798}"/>
		<Vertex lat="27.76326931213536" lon="-82.62820042593953"/>
		<Vertex lat="27.76325916080646" lon="-82.62819086326094"/>
		<Vertex lat="27.76325442852695" lon="-82.62817596967977"/>
		<Vertex lat="27.76325443636173" lon="-82.62815993591454"/>
		<Vertex lat="27.76325895678917" lon="-82.62814672531050"/>
		<Vertex lat="27.76327882880122" lon="-82.62813942585382"/>
		<Vertex lat="27.76332765991416" lon="-82.62814244633022"/>
		<Vertex lat="27.76332658421187" lon="-82.62820099910822"/>
	</Polygon>
	<Polygon groupIndex="98" altitude="3.42340993881226">
		<Attribute name="UniqueGUID" guid="{359C73E8-06BE-4FB2-ABCB-EC942F7761D0}" type="GUID" value="{B832521C-4712-4BCA-BA3A-BBD22DBE2705}"/>
		<Attribute name="MaterialGUID" guid="{CD28EFD0-D3F0-43B6-9F88-4E4707344A04}" type="GUID" value="{7BFBB0B3-69B6-412A-A316-AC50CAED3798}"/>
		<Vertex lat="27.76325576870013" lon="-82.62970206658478"/>
		<Vertex lat="27.76325681544350" lon="-82.62961280164630"/>
		<Vertex lat="27.76326712583165" lon="-82.62958878065356"/>
		<Vertex lat="27.76333171077617" lon="-82.62958816277263"/>
		<Vertex lat="27.76333327109298" lon="-82.62971754066055"/>
		<Vertex lat="27.76327161131943" lon="-82.62971375349095"/>
	</Polygon>
	<Polygon displayName="Polygon  ( texture ) (copy)" groupIndex="99" altitude="3.42376065254211">
		<Attribute name="UniqueGUID" guid="{359C73E8-06BE-4FB2-ABCB-EC942F7761D0}" type="GUID" value="{3B7635EE-D2EC-4425-9878-6818F094392F}"/>
		<Attribute name="MaterialGUID" guid="{CD28EFD0-D3F0-43B6-9F88-4E4707344A04}" type="GUID" value="{7BFBB0B3-69B6-412A-A316-AC50CAED3798}"/>
		<Vertex lat="27.76325692592653" lon="-82.62951224955981"/>
		<Vertex lat="27.76325797266990" lon="-82.62942298462133"/>
		<Vertex lat="27.76326828305806" lon="-82.62939896362859"/>
		<Vertex lat="27.76333558078888" lon="-82.62939948820681"/>
		<Vertex lat="27.76333442831939" lon="-82.62952772363558"/>
		<Vertex lat="27.76327276854584" lon="-82.62952393646597"/>
	</Polygon>
	<Polygon displayName="Polygon  ( texture ) (copy 2)" groupIndex="100" altitude="3.42446327209473">
		<Attribute name="UniqueGUID" guid="{359C73E8-06BE-4FB2-ABCB-EC942F7761D0}" type="GUID" value="{ABF18A7A-8C50-481A-ADC8-551983A64F4B}"/>
		<Attribute name="MaterialGUID" guid="{CD28EFD0-D3F0-43B6-9F88-4E4707344A04}" type="GUID" value="{7BFBB0B3-69B6-412A-A316-AC50CAED3798}"/>
		<Vertex lat="27.76325728802952" lon="-82.62913444753299"/>
		<Vertex lat="27.76325833477290" lon="-82.62904518259451"/>
		<Vertex lat="27.76326864516106" lon="-82.62902116160177"/>
		<Vertex lat="27.76333628250575" lon="-82.62902054512868"/>
		<Vertex lat="27.76333479042238" lon="-82.62914992160876"/>
		<Vertex lat="27.76327313064883" lon="-82.62914613443915"/>
	</Polygon>
	<Polygon displayName="Polygon  ( texture ) (copy 1)" groupIndex="102" altitude="3.42411351203918">
		<Attribute name="UniqueGUID" guid="{359C73E8-06BE-4FB2-ABCB-EC942F7761D0}" type="GUID" value="{F185FC93-114E-4FE4-85F8-F49F05D4071D}"/>
		<Attribute name="MaterialGUID" guid="{CD28EFD0-D3F0-43B6-9F88-4E4707344A04}" type="GUID" value="{7BFBB0B3-69B6-412A-A316-AC50CAED3798}"/>
		<Vertex lat="27.76325848100494" lon="-82.62932322991293"/>
		<Vertex lat="27.76325952774831" lon="-82.62923396497445"/>
		<Vertex lat="27.76326983813647" lon="-82.62920994398171"/>
		<Vertex lat="27.76333747548117" lon="-82.62920932750862"/>
		<Vertex lat="27.76333598339780" lon="-82.62933870398869"/>
		<Vertex lat="27.76327432362425" lon="-82.62933491681909"/>
	</Polygon>
	<Polygon displayName="Polygon  ( texture ) (copy)" groupIndex="258" altitude="3.02201151847839">
		<Attribute name="UniqueGUID" guid="{359C73E8-06BE-4FB2-ABCB-EC942F7761D0}" type="GUID" value="{B5BBF3A5-A229-453C-B3EC-49135A658D4D}"/>
		<Attribute name="MaterialGUID" guid="{CD28EFD0-D3F0-43B6-9F88-4E4707344A04}" type="GUID" value="{7BFBB0B3-69B6-412A-A316-AC50CAED3798}"/>
		<Vertex lat="27.76328764787890" lon="-82.62807227267722"/>
		<Vertex lat="27.76328800845455" lon="-82.62796057261107"/>
		<Vertex lat="27.76333003373860" lon="-82.62796217501746"/>
		<Vertex lat="27.76332854546405" lon="-82.62807327732115"/>
	</Polygon>
	<Polygon groupIndex="89" altitude="3.72097754478455">
		<Attribute name="UniqueGUID" guid="{359C73E8-06BE-4FB2-ABCB-EC942F7761D0}" type="GUID" value="{15682F75-F890-4998-991E-D1965F7A320D}"/>
		<Attribute name="MaterialGUID" guid="{CD28EFD0-D3F0-43B6-9F88-4E4707344A04}" type="GUID" value="{7BFBB0B3-69B6-412A-A316-AC50CAED3798}"/>
		<Vertex lat="27.76333159481677" lon="-82.62977938995233"/>
		<Vertex lat="27.76345293604719" lon="-82.62987023811844"/>
		<Vertex lat="27.76351047242230" lon="-82.62986837379532"/>
		<Vertex lat="27.76351876917742" lon="-82.62987878938070"/>
		<Vertex lat="27.76352387130432" lon="-82.62990429990465"/>
		<Vertex lat="27.76350255326309" lon="-82.62996371345081"/>
		<Vertex lat="27.76327467241195" lon="-82.62995945220000"/>
		<Vertex lat="27.76326666392429" lon="-82.62994827819192"/>
		<Vertex lat="27.76325596308815" lon="-82.62991028970725"/>
		<Vertex lat="27.76325730001479" lon="-82.62979175861069"/>
		<Vertex lat="27.76326822158545" lon="-82.62977997161842"/>
	</Polygon>
	<Polygon displayName="Polygon  ( texture ) (copy 2)" groupIndex="91" altitude="3.72369456291199">
		<Attribute name="UniqueGUID" guid="{359C73E8-06BE-4FB2-ABCB-EC942F7761D0}" type="GUID" value="{31178A20-21BF-4DC2-A7B2-B09AD17CBACA}"/>
		<Attribute name="MaterialGUID" guid="{CD28EFD0-D3F0-43B6-9F88-4E4707344A04}" type="GUID" value="{7BFBB0B3-69B6-412A-A316-AC50CAED3798}"/>
		<Vertex lat="27.76344465457148" lon="-82.62905840187342"/>
		<Vertex lat="27.76331228504384" lon="-82.62899161184846"/>
		<Vertex lat="27.76326511787336" lon="-82.62899074782506"/>
		<Vertex lat="27.76326004064058" lon="-82.62898259215508"/>
		<Vertex lat="27.76325701233625" lon="-82.62897031492628"/>
		<Vertex lat="27.76325869849322" lon="-82.62888891814909"/>
		<Vertex lat="27.76327741024659" lon="-82.62888210164768"/>
		<Vertex lat="27.76350157769809" lon="-82.62887833973581"/>
		<Vertex lat="27.76350958615035" lon="-82.62888951379151"/>
		<Vertex lat="27.76352028685874" lon="-82.62892750238852"/>
		<Vertex lat="27.76351894941227" lon="-82.62904603370129"/>
		<Vertex lat="27.76350802778290" lon="-82.62905782064085"/>
	</Polygon>
	<Polygon groupIndex="4" altitude="2.99081420898438">
		<Attribute name="UniqueGUID" guid="{359C73E8-06BE-4FB2-ABCB-EC942F7761D0}" type="GUID" value="{CC118693-C0D9-4C49-A43C-A94E8E973A1C}"/>
		<Attribute name="MaterialGUID" guid="{CD28EFD0-D3F0-43B6-9F88-4E4707344A04}" type="GUID" value="{7BFBB0B3-69B6-412A-A316-AC50CAED3798}"/>
		<Vertex lat="27.76330238578080" lon="-82.62874504497967"/>
		<Vertex lat="27.76329267181812" lon="-82.62873801677993"/>
		<Vertex lat="27.76328985451236" lon="-82.62865330428212"/>
		<Vertex lat="27.76333441703061" lon="-82.62865494886579"/>
		<Vertex lat="27.76333450694364" lon="-82.62859339256173"/>
